name,address,lon,lat
セブンイレブン日本橋大伝馬町店,東京都中央区大伝馬町1-7,139.7725725,35.67139971
ジェイ・ショップ五日市店,東京都あきる野市舘谷287,139.2327619,35.72935639
セブンイレブン稲城大丸東店,東京都稲城市大丸642-1,139.4996899,35.64155112
サンクス昭島中神町新畑店,東京都昭島市中神町字中新畑1157-5,139.3829173,35.71713602
セブンイレブン奥多摩古里店,東京都西多摩郡奥多摩町小丹波33,139.1519415,35.81552507
デ-リ-ヤマザキ奥多摩店,東京都西多摩郡奥多摩町氷川1415,139.095583,35.80633292
タイムズマ-ト氷川店,東京都西多摩郡奥多摩町氷川1421,139.0954703,35.80707686
セブンイレブン阿伎留医療センタ－前店,東京都西多摩郡日の出町大字平井605,139.2718899,35.73347588
セブンイレブン日の出西平井店,東京都西多摩郡日の出町大字平井字狩宿2535-1,139.2478788,35.7380001
ファミリ-マ-ト田無芝久保店,東京都西東京市芝久保4-2-13,139.5275956,35.72998347
セブンイレブン青梅千ケ瀬6丁目店,東京都青梅市千ケ瀬6-792-3,139.2601418,35.78601766
セブンイレブン足立大谷田店,東京都足立区大谷田町5-6-12,139.8044801,35.77566005
ロ-ソン東伊興町店,東京都足立区東伊興23-2,139.7909832,35.80350937
セブンイレブン足立南花畑2丁目店,東京都足立区南花畑2丁目49－10,139.8218501,35.79284075
セブンイレブン町田山崎町西店,東京都町田市山崎町130－1,139.4278121,35.57665474
サンクス町田小山町店,東京都町田市小山町636-2,139.3847036,35.59092075
ファミリ-マ-ト町田成瀬街道店,東京都町田市成瀬4965-1,139.4784307,35.5407647
ファミリ-マ-ト町田鶴川街道店,東京都町田市能ヶ谷町1088-10,139.4819391,35.58903622
ロ-ソン鶴川駅北口店,東京都町田市能ケ谷町2-14-1,139.4819391,35.58903622
セブンイレブン町田桜美林大学前店,東京都町田市木曽字23-2498-1,139.4134462,35.56992658
セブンイレブン町田市木曽町店,東京都町田市木曽町590-1,139.4134569,35.56993531
ファミリ-マ-ト町田芝溝街道店,東京都町田市野津田町919,139.4536042,35.58873085
サンクス八王子バイパス店,東京都八王子市宇津木町663番2,139.3530321,35.6814223
セブンイレブン八王子小宮店,東京都八王子市小宮町851-4,139.3702197,35.6871041
セブンイレブン八王子高尾駅南口店,東京都八王子市東浅川914-5,139.285934,35.64219633
セブンイレブン八王子南新町店,東京都八王子市南新町12,139.330759,35.65876075
セブンイレブン八王子片倉南店,東京都八王子市片倉町2308－8,139.3396425,35.63701706
セブンイレブン板橋仲宿店,東京都板橋区中宿54-7,139.7092402,35.751162
セブンイレブン二葉町店,東京都品川区二葉町1-10-8,139.7261703,35.60569889
サンクス府中東口店,東京都府中市宮1丁目17-5,139.4772077,35.66838834
サ-クルＫ文京後楽ニ丁目店,東京都文京区後楽ニ丁目5番1号,139.7460294,35.70553234
セブンイレブン北区岩淵店,東京都北区岩淵39-36,139.721396,35.7856173
ファミリ-マ-ト貫井町店,東京都練馬区貫井町2-16-13,139.6288061,35.73698555
サンクス石神井公園店,東京都練馬区石神井3丁目25-21,139.6046448,35.7434297
デイリ-ヤマザキ水元店,東京都葛飾区水元3―10,139.8626196,35.78127421
セブンイレブン江戸川篠崎町2丁目店,東京都江戸川区篠崎町2丁目38,139.9090755,35.70780617
エ-エムピ-エムヴィ-ナスフォ-ト|ファミリ-店,東京都江東区青海1丁目,139.7801363,35.62501801
デイリ-ヤマザキ神宮前店,東京都渋谷区神宮前3―42―16,139.714095,35.67194881
ファミリ-マ-ト小金井中大附属前店,東京都小金井市貫井北町3丁目-30,139.4967851,35.71125381
セブンイレブン新小平駅前店,東京都小平市小川町2-1212-1,139.4697994,35.72999
セブンイレブン小平大沼町2丁目店,東京都小平市大沼町2－605－1,139.4962084,35.7417817
エ-エムピ-エム牛込柳町駅前店,東京都新宿区原町1－13,139.7255588,35.70054015
エ-エムピ-エム新宿京王モ-ル店,東京都新宿区西新宿1丁目南口地下街1号,139.699477,35.68776637
デイリ-ヤマザキ清瀬台田団地店,東京都清瀬市下宿1-46-11,139.5329332,35.79717451
セブンイレブン長渕店,東京都青梅市長渕4－229－1,139.2716432,35.78149181
ファミリ-マ-ト秋葉原駅中央口前店,東京都千代田区神田佐久間町1丁目13,139.7742462,35.69783918
セブンイレブン台東石浜店,東京都台東区清川2-301-1,139.8030853,35.72775382
サンクス中野3丁目店,東京都中野区中野3丁目-46-13,139.6626449,35.70533196
ファミリ-マ-ト版画美術館入口店,東京都町田市原町田3-102-1,139.4528425,35.54276386
セブンイレブン東大和上北台駅北店,東京都東大和市芋窪5－1118－1,139.4162142,35.74743526
セブンイレブン東大和高木1丁目店,東京都東大和市高木1－34－1,139.4366956,35.75368702
セブンイレブン八王子台町4丁目店,東京都八王子市台町4丁目160－12,139.3182385,35.65844693
ミニストップ荏原6丁目店,東京都品川区荏原６-５-１,139.703908,35.61343582
セブンイレブン北区東十条4丁目店,東京都北区東十条4の5の6,139.7274095,35.76656775
あおき,東京都あきる野市伊奈444-1,139.25731,35.73511
セブンイレブンあきる野市役所前店,東京都あきる野市雨間228-1,139.29253,35.72802
ファミリ-マ-トあきる野下代継店,東京都あきる野市下代継23-1,139.28261,35.72365
サンクスあきる野インタ-店,東京都あきる野市牛沼131-1,139.28836,35.72162
セブンイレブンあきる野牛沼店,東京都あきる野市牛沼159-1,139.29034,35.72301
セブンイレブンあきる野戸倉店,東京都あきる野市戸倉183,139.20401,35.73001
（有）十一屋商店,東京都あきる野市五日市176,139.22603,35.73082
ミニストップあきる野高尾店,東京都あきる野市高尾56-3,139.2408,35.72838
セブンイレブンあきる野増戸店,東京都あきる野市山田553-1,139.25555,35.72731
セブンイレブンあきる野山田店,東京都あきる野市山田758,139.2643,35.72486
ファミリ-マ-ト秋川駅前店,東京都あきる野市秋川2-1-1,139.28638,35.72857
ファミリ-マ-ト秋川六丁目店,東京都あきる野市秋川6-1-1,139.29015,35.72894
ロ-ソンあきる野雨間店,東京都あきる野市秋留2-1-1,139.29579,35.72312
セブンイレブンあきる野小川店,東京都あきる野市小川51-1,139.31532,35.72103
タイムズマ-ト野崎商店,東京都あきる野市小中野371,139.21407,35.72773
ロ-ソンあきる野瀬戸岡店,東京都あきる野市瀬戸岡148-4,139.29099,35.73515
セブンイレブンあきる野瀬戸岡店,東京都あきる野市瀬戸岡769－1,139.28979,35.74032
（株）西松屋チェ-ン　あきる野店,東京都あきる野市瀬戸岡781-3,139.29077,35.74023
スリ-エフ秋川二宮店,東京都あきる野市二宮1407-1,139.31717,35.72578
スリ-エフ秋川野辺店,東京都あきる野市野辺273-4,139.31149,35.72257
ファミリ-マ-ト稲城向陽台店,東京都稲城市向陽台6-8-1,139.49025,35.64125
セブンイレブン稲城坂浜店,東京都稲城市坂浜3280-1,139.49236,35.6324
ファミリ-マ-ト若葉台一丁目店,東京都稲城市若葉台1丁目23,139.47055,35.62739
ファミリ-マ-ト若葉台店,東京都稲城市若葉台2-4-4,139.47092,35.62036
ロ-ソン稲城大丸店,東京都稲城市大丸140-40,139.49843,35.64552
スリ-エフ稲城大丸店,東京都稲城市大丸313-1,139.49803,35.64901
サンクス稲城大丸店,東京都稲城市大丸917-1,139.49104,35.64766
ファミリ-マ-ト稲城長峰店,東京都稲城市長峰2-1,139.48463,35.63174
セブンイレブン稲城長沼店,東京都稲城市東長沼1181-6,139.50371,35.64308
エ-エムピ-エム稲城長沼店,東京都稲城市東長沼204-1,139.50502,35.64668
ファミリ-マ-ト加藤稲城店,東京都稲城市東長沼2109-7,139.50092,35.63882
スリ-エフ稲城駅北口店,東京都稲城市東長沼3107-1,139.50098,35.63662
ミニストップ稲城長沼店,東京都稲城市東長沼450,139.502,35.64667
コミュニティ・ストア稲城ざるや店,東京都稲城市東長沼592,139.50673,35.64549
ファミリ-マ-ト京王稲城駅前店,東京都稲城市百村1613-3,139.49969,35.63588
セブンイレブン稲城百村店,東京都稲城市百村2115-17,139.49007,35.63596
ファミリ-マ-ト稲城平尾店,東京都稲城市平尾1丁目34-9,139.48965,35.61201
セブンイレブン稲城市平尾店,東京都稲城市平尾2-8-3,139.49608,35.60954
セブンイレブン矢野口中央店,東京都稲城市矢野口1269,139.51634,35.63886
ファミリ-マ-ト稲城矢野口店,東京都稲城市矢野口1299-1,139.51105,35.63804
ロ-ソン稲城矢野口店,東京都稲城市矢野口215,139.51947,35.64141
セブンイレブン京王読売ランド前店,東京都稲城市矢野口2281,139.51476,35.63404
セブンイレブン羽村羽加美1丁目店,東京都羽村市羽加美1丁目40－3,139.30592,35.76818
セブンイレブン羽村羽西2丁目店,東京都羽村市羽西2－2－29,139.29628,35.77198
ファミリ-マ-ト羽村栄町店,東京都羽村市栄町2-21-11,139.31075,35.76925
ブルマ-トさの,東京都羽村市栄町2-23-8,139.30882,35.76891
ミニストップ羽村栄町店,東京都羽村市栄町2-3-57,139.3082,35.77273
セブンイレブン羽村五ノ神1丁目店,東京都羽村市五ノ神1丁目14－9,139.31941,35.75843
サンクス羽村駅東口店,東京都羽村市五ノ神4-11-18,139.3179,35.76062
ファミリ-マ-ト羽村駅東口店,東京都羽村市五ノ神4-15-1 榎戸ビル1Ｆ,139.31567,35.7593
セブンイレブン小作駅東口店,東京都羽村市小作台1-13-1,139.30287,35.77694
タイムズマ-ト小作店,東京都羽村市小作台1-3-7,139.30202,35.77749
ファミリ-マ-ト羽村小作台店,東京都羽村市小作台1丁目22-5,139.30299,35.77797
セブンイレブン羽村小作台2丁目店,東京都羽村市小作台2－18－1,139.30035,35.77977
ロ-ソン羽村小作台店,東京都羽村市小作台5-29-6,139.30273,35.77195
ロ-ソン羽村小作駅東口店,東京都羽村市小作台5-35-1,139.3027,35.77562
セブンイレブン小作駅西口店,東京都羽村市小作台5-9-1,139.30157,35.77539
ミニストップ羽村神明台店,東京都羽村市神明台1-3-6,139.319,35.75669
セブンイレブン羽村神明台2丁目店,東京都羽村市神明台2－10－3,139.32819,35.75414
セブンイレブン羽村神明台3丁目店,東京都羽村市神明台3-6-4,139.32796,35.76274
サ-クルＫ羽村市役所通店,東京都羽村市神明台一丁目27番地2,139.32129,35.75484
サ-クルＫ羽村神明台店,東京都羽村市神明台四丁目1番地3,139.32759,35.75848
セブンイレブン羽村川崎1丁目店,東京都羽村市川崎1－8－12,139.31718,35.75383
ファミリ-マ-ト羽村川崎店,東京都羽村市川崎2-7,139.31827,35.7521
Ｙショップ榎本,東京都羽村市双葉町2-4-1,139.33234,35.75885
サンクス羽村双葉町店,東京都羽村市双葉町3丁目9-34,139.33572,35.75801
ファミリ-マ-ト羽村富士見平店,東京都羽村市富士見平2丁目21-1,139.32664,35.76294
スリ-エイト羽村店,東京都羽村市緑ケ丘1-5-12,139.31367,35.7639
サンクスお花茶屋店,東京都葛飾区お花茶屋1丁目19,139.84023,35.748
セブンイレブン葛飾お花茶屋店,東京都葛飾区お花茶屋2-4-18,139.83977,35.75111
（有）伊藤酒店,東京都葛飾区お花茶屋2-5-14,139.83934,35.7508
マインマ-トお花茶屋店,東京都葛飾区お花茶屋2-5-14,139.83934,35.7508
サンクスお花茶屋2丁目店,東京都葛飾区お花茶屋2丁目3-3,139.83928,35.75256
デイリ-ヤマザキ奥戸本町店,東京都葛飾区奥戸1-28-7,139.85898,35.73103
よろづや酒店,東京都葛飾区奥戸2-14-30,139.85654,35.73632
サンクス葛飾奥戸店,東京都葛飾区奥戸2丁目14-30,139.85654,35.73632
セブンイレブン葛飾奥戸3丁目店,東京都葛飾区奥戸3－8－2,139.86113,35.73324
ロ-ソン奥戸四丁目店,東京都葛飾区奥戸4-23-26,139.86838,35.72857
ファミリ-マ-ト奥戸五丁目店,東京都葛飾区奥戸5-1-1,139.86417,35.73105
セブンイレブン葛飾奥戸5丁目店,東京都葛飾区奥戸5丁目3－2,139.86473,35.73225
サンクス葛飾鎌倉店,東京都葛飾区鎌倉1丁目23-11,139.87857,35.74282
ロ-ソン新柴又店,東京都葛飾区鎌倉3-28-1,139.87843,35.74987
セブンイレブン亀有曳船橋店,東京都葛飾区亀有1-14-5,139.84465,35.75689
セブンイレブン葛飾亀有2丁目店,東京都葛飾区亀有2-34-5,139.8485,35.76073
（有）田中米作商店,東京都葛飾区亀有2-26-17,139.85088,35.76017
セブンイレブン葛飾亀有3丁目店,東京都葛飾区亀有3-27-31,139.84966,35.76554
ファミリ-マ-ト亀有駅東店,東京都葛飾区亀有3-43-4,139.85048,35.76671
ファミリ-マ-ト亀有三丁目店,東京都葛飾区亀有3-9-7,139.84744,35.76515
セブンイレブン亀有4丁目都営アパ－ト前店,東京都葛飾区亀有4－27－1,139.84204,35.76278
セブンイレブン亀有4丁目店,東京都葛飾区亀有4－37－12,139.84596,35.7636
ファミリ-マ-ト亀有四丁目店,東京都葛飾区亀有4-4-11,139.84506,35.76016
ファミリ-マ-ト亀有五丁目店,東京都葛飾区亀有5-12-12 振興ビル1Ｆ,139.84491,35.76865
サンクス亀有北口店,東京都葛飾区亀有5-45-1,139.84923,35.76749
セブンイレブン金町店,東京都葛飾区金町3-21-13,139.87408,35.76726
ファミリ-マ-ト吉川金町店,東京都葛飾区金町5-29-24,139.86876,35.76652
エ-エムピ-エム京成金町駅店,東京都葛飾区金町5-37-9,139.87015,35.76859
ファミリ-マ-ト金町駅前店,東京都葛飾区金町6-4-1,139.86902,35.76918
サンクス金町南口店,東京都葛飾区金町6丁目4-2 ラヴィクレ-ル1-1,139.86902,35.76918
セブンイレブン葛飾高砂2丁目店,東京都葛飾区高砂2-18-19,139.86493,35.74957
ミニストップ高砂３丁目店,東京都葛飾区高砂3-12-1,139.86855,35.7505
ファリコあきたや,東京都葛飾区高砂3-2-20,139.86729,35.74778
ロ-ソン高砂四丁目店,東京都葛飾区高砂4-2-26,139.87379,35.74707
エ-エムピ-エム京成高砂駅店,東京都葛飾区高砂5-28-1,139.86655,35.75093
セブンイレブン葛飾高砂駅前店,東京都葛飾区高砂5-42-2,139.86839,35.75154
ファミリ-マ-ト高砂五丁目店,東京都葛飾区高砂5丁目37-9,139.86836,35.75197
セブンイレブン葛飾高砂7丁目店,東京都葛飾区高砂7丁目20番16号,139.86574,35.75526
サンクス葛飾細田店,東京都葛飾区細田1-16-9,139.87122,35.73997
セブンイレブン高砂店,東京都葛飾区細田4-15-7,139.8707,35.74432
セブンイレブン葛飾四つ木1丁目店,東京都葛飾区四つ木1－28－5,139.83461,35.73422
エ-エムピ-エム四つ木1丁目店,東京都葛飾区四つ木1－29－16,139.83492,35.73477
セブンイレブン四ツ木店,東京都葛飾区四ツ木4－5－10,139.83316,35.7379
デ-リ-ヤマザキ柴又店,東京都葛飾区柴又1-10-3,139.87088,35.75599
ファミリ-マ-ト星野柴又一丁目店,東京都葛飾区柴又1-3-1,139.87062,35.75431
セブンイレブン柴又店,東京都葛飾区柴又2-22-19,139.869,35.76065
セブンイレブン柴又駅前店,東京都葛飾区柴又4-11-10,139.8759,35.75599
セブンイレブン葛飾柴又4丁目店,東京都葛飾区柴又4-36-10,139.87849,35.75066
セブンイレブン葛飾小菅2丁目店,東京都葛飾区小菅2－21－12,139.82736,35.7503
コミュニティ・ストア小菅山形屋店,東京都葛飾区小菅2-22-10,139.82742,35.75106
ポプラ綾瀬駅前店,東京都葛飾区小菅4-12-3,139.82671,35.76201
シマムラ,東京都葛飾区新宿2-6-9,139.85551,35.7619
ファミリ-マ-ト葛飾新宿三丁目店,東京都葛飾区新宿3-17,139.86473,35.75944
セブンイレブン葛飾内野店,東京都葛飾区新宿5-22-15,139.86238,35.76639
（株）明治屋商店,東京都葛飾区新小岩1-27-2,139.85632,35.71556
エ-エムピ-エム新小岩駅前店,東京都葛飾区新小岩1-29-8,139.8577,35.71607
ファミリ-マ-ト新小岩駅南口店,東京都葛飾区新小岩1-48-8,139.85941,35.71627
ロ-ソン新小岩平和橋通店,東京都葛飾区新小岩1-49-10,139.85988,35.71588
サンクス新小岩2丁目店,東京都葛飾区新小岩2-10-4,139.86119,35.71553
ロ-ソン新小岩駅前店,東京都葛飾区新小岩2-2-26,139.86102,35.71795
セブンイレブン南新小岩店,東京都葛飾区新小岩3-7-3,139.86453,35.71526
セブンイレブン新小岩4丁目店,東京都葛飾区新小岩4－25－1,139.86508,35.7194
セブンイレブン葛飾西水元店,東京都葛飾区水元2-7-7,139.85583,35.78557
セブンイレブン葛飾水元3丁目店,東京都葛飾区水元3-17-10,139.86511,35.78404
ロ-ソン水元４丁目店,東京都葛飾区水元4-25-12,139.86479,35.78565
ひらのコンビニエンスストア,東京都葛飾区水元5-12-19,139.86139,35.78984
ファミリ-マ-ト西亀有二丁目店,東京都葛飾区西亀有2-43-12,139.83542,35.76018
エ-エムピ-エム葛飾西亀有2丁目店,東京都葛飾区西亀有2－9－7,139.832,35.76038
サンシャイン,東京都葛飾区西新小岩1-2-7,139.85728,35.71726
ロ-ソン西新小岩?丁目店,東京都葛飾区西新小岩1-3-4,139.85693,35.71754
セブンイレブン西新小岩店,東京都葛飾区西新小岩4-38-19,139.8544,35.7215
ミニストップ西新小岩４丁目店,東京都葛飾区西新小岩4-39-21,139.85524,35.72038
セブンイレブン葛飾西新小岩5丁目店,東京都葛飾区西新小岩5－17－26,139.84763,35.72417
サンクス西新小岩店,東京都葛飾区西新小岩5丁目23-3,139.85013,35.72577
ミニストップ西水元２丁目店,東京都葛飾区西水元2-21-16,139.85249,35.786
スリ-エイト西水元店,東京都葛飾区西水元3-27-3,139.85075,35.78967
ファミリ-マ-ト西水元五丁目店,東京都葛飾区西水元5丁目1-12,139.85391,35.78315
セブンイレブン葛飾青戸3丁目店,東京都葛飾区青戸3－34－7,139.85619,35.74678
デイリ-ヤマザキ青砥駅前店,東京都葛飾区青戸3-35-1,139.85641,35.74665
ロ-ソン青砥駅北口店,東京都葛飾区青戸3-38-1,139.85564,35.74631
セブンイレブン葛飾青戸4丁目店,東京都葛飾区青戸4－27,139.85114,35.75233
ファミリ-マ-ト青戸四丁目店,東京都葛飾区青戸4丁目7-17,139.84987,35.74825
セブンイレブン葛飾青戸5丁目店,東京都葛飾区青戸5－3－4,139.85356,35.74812
（資）碓井商店,東京都葛飾区青戸6-4-22,139.85667,35.74807
サンクス青戸環七店,東京都葛飾区青戸7-19-14,139.85553,35.75294
ロ-ソン青戸八丁目店,東京都葛飾区青戸8-3-8,139.85008,35.75612
ミニストップ金町駅北口店,東京都葛飾区東金町1-37-2,139.87111,35.77076
セブンイレブン葛飾東金町2丁目店,東京都葛飾区東金町2-4-14,139.86743,35.77161
セブンイレブン東金町店,東京都葛飾区東金町3-17-11,139.87296,35.7706
セブンイレブン葛飾東金町5丁目店,東京都葛飾区東金町5－37－14,139.881,35.77765
サンクス葛飾橋店,東京都葛飾区東金町5丁目37-1,139.881,35.77765
セブンイレブン東四つ木1丁目店,東京都葛飾区東四つ木1－21－6,139.841,35.72937
ショップ＆ライフさとう,東京都葛飾区東四つ木2-11-23,139.84352,35.72942
デ-リ-ヤマザキ東四ツ木店,東京都葛飾区東四ツ木4-22-15,139.83878,35.73281
ミニストップ東四つ木店,東京都葛飾区東四つ木4-47-6,139.84262,35.73379
サンクス葛飾たつみ橋店,東京都葛飾区東新小岩1丁目4-5,139.85765,35.7192
サンクス東新小岩店,東京都葛飾区東新小岩3-13-4,139.86259,35.72346
エ-エムピ-エム東新小岩4丁目店,東京都葛飾区東新小岩4－1－20,139.86009,35.72408
セブンイレブン葛飾東新小岩7丁目店,東京都葛飾区東新小岩7－32,139.85721,35.72611
セブンイレブン平和橋通り東新小岩店,東京都葛飾区東新小岩7丁目7－8,139.85187,35.72456
ヤマザキショップマメウダ店,東京都葛飾区東水元1-6-2,139.86794,35.77795
セブンイレブン葛飾東堀切1丁目店,東京都葛飾区東堀切1－18－6,139.83539,35.75043
コミュニティ・ストア東堀切エガワ店,東京都葛飾区東堀切1-20-16,139.83655,35.74956
セブンイレブン東堀切3丁目店,東京都葛飾区東堀切3－13－3,139.83607,35.75508
セブンイレブン葛飾東立石1丁目店,東京都葛飾区東立石1－3－6,139.84622,35.73073
ゼットワン立石キクヤ,東京都葛飾区東立石4-16-11,139.85056,35.73368
セブンイレブン葛飾東立石4丁目店,東京都葛飾区東立石4－55－4,139.84814,35.7366
セブンイレブンにいじゅく店,東京都葛飾区南水元1-30-13,139.86185,35.77599
サンクス葛飾水元店,東京都葛飾区南水元2丁目21-11,139.85777,35.77959
ロ-ソン水元中央通店,東京都葛飾区南水元4-11-20,139.86282,35.78008
ミニストップ南水元４丁目店,東京都葛飾区南水元4-26-29,139.86667,35.77884
ロ-ソン南水元四丁目店,東京都葛飾区南水元4-27-7,139.86687,35.7798
セブンイレブン白鳥1丁目駅前通り店,東京都葛飾区白鳥1－4－2,139.84172,35.74617
セブンイレブン葛飾白鳥店,東京都葛飾区白鳥2-3-3,139.84314,35.74978
ファミリ-マ-ト伊勢元白鳥店,東京都葛飾区白鳥3-6-12,139.84575,35.75013
セブンイレブン葛飾宝町1丁目店,東京都葛飾区宝町1丁目1－8,139.83699,35.73982
ロ-ソンお花茶屋店,東京都葛飾区宝町2-34-13,139.8394,35.74651
スリ-エイト堀切店,東京都葛飾区堀切2-22-19,139.82744,35.74218
ロ-ソン堀切店,東京都葛飾区堀切2-65-17,139.83127,35.74307
ミニストップ堀切菖蒲園店,東京都葛飾区堀切3-6-1,139.82747,35.74688
セブンイレブン葛飾堀切4丁目店,東京都葛飾区堀切4-7,139.82527,35.74583
ＫＣＳしのはら,東京都葛飾区堀切5-7-1,139.82838,35.74805
ファミリ-マ-ト堀切六丁目店,東京都葛飾区堀切6-11-20,139.83163,35.75153
スリ-エフ葛飾堀切7丁目店,東京都葛飾区堀切7-22-28,139.83115,35.75544
セブンイレブン堀切7丁目店,東京都葛飾区堀切7－32－5,139.8282,35.75584
ミニストップ堀切８丁目店,東京都葛飾区堀切8-23-25,139.83038,35.75736
サンクス立石3丁目店,東京都葛飾区立石3-1-2,139.84346,35.7375
セブンイレブン葛飾立石3丁目店,東京都葛飾区立石3－5－6,139.84283,35.73927
セブンイレブン葛飾立石4丁目店,東京都葛飾区立石4-33-7,139.84856,35.74111
ミニストップ立石５丁目店,東京都葛飾区立石5-11-22,139.84628,35.74245
ファミリ-マ-ト立石五丁目店,東京都葛飾区立石5-18-1,139.84438,35.74467
セブンイレブン葛飾立石5丁目店,東京都葛飾区立石5丁目4－7,139.84427,35.7437
エ-エムピ-エム葛飾立石6丁目店,東京都葛飾区立石6－34－15,139.85298,35.74225
ロ-ソン立石八丁目店,東京都葛飾区立石8-43-8,139.85715,35.73986
ファミリ-マ-ト一之江三丁目店,東京都江戸川区一之江3-1-17,139.8847,35.68598
（有）岩楯商店,東京都江戸川区一之江6-20-6,139.87862,35.69014
セブンイレブン江戸川一之江7丁目店,東京都江戸川区一之江7－13－28,139.87711,35.68634
セブンイレブン一之江駅環七通り店,東京都江戸川区一之江7－34－10,139.88246,35.68679
ファミリ-マ-ト春江町四丁目店,東京都江戸川区一之江7-65-20,139.87602,35.6835
ファミリ-マ-ト一之江七丁目店,東京都江戸川区一之江7-81-2 -101,139.88036,35.6852
ロ-ソン一之江駅前店,東京都江戸川区一之江8-17-12,139.88344,35.68668
セブンイレブン江戸川興宮町店,東京都江戸川区興宮町5-6,139.87546,35.7217
ファミリ-マ-ト須賀江戸川二丁目店,東京都江戸川区江戸川2-6-2,139.90254,35.68671
みぞぐち,東京都江戸川区江戸川3-41-12,139.89027,35.68419
セブンイレブン江戸川5丁目店,東京都江戸川区江戸川5-25-1,139.883,35.67305
スリ-エフ江戸川三角店,東京都江戸川区江戸川6-20-2,139.87158,35.67511
ミニストップ鹿骨１丁目店,東京都江戸川区鹿骨1-43-4,139.88937,35.7072
セブンイレブン江戸川鹿骨1丁目店,東京都江戸川区鹿骨1－53－13,139.88989,35.70854
スリ-エフ篠崎公園前店,東京都江戸川区鹿骨2-42-12,139.89484,35.7085
セブンイレブン江戸川鹿骨4丁目店,東京都江戸川区鹿骨4－6－6,139.88843,35.71397
ファミリ-マ-ト鹿骨五丁目店,東京都江戸川区鹿骨5-39-4,139.88431,35.71771
ミニストップ篠崎１丁目店,東京都江戸川区篠崎町1-333,139.90437,35.70953
モンマ-トあわじや,東京都江戸川区篠崎町1-404-8,139.90387,35.7081
ロ-ソン篠崎町二丁目店,東京都江戸川区篠崎町2-188-1,139.90741,35.70532
ファミリ-マ-ト篠崎駅南口店,東京都江戸川区篠崎町2-406-1,139.90475,35.70613
ファミリ-マ-ト篠崎三丁目店,東京都江戸川区篠崎町3-25-1,139.91396,35.70281
サンクス江戸川篠崎店,東京都江戸川区篠崎町4-13-16 パレロワイヤル篠崎,139.91153,35.69858
コミュニティ・ストア篠崎町はんだ店,東京都江戸川区篠崎町5-10-6,139.90819,35.70173
セブンイレブン江戸川篠崎5丁目店,東京都江戸川区篠崎町5丁目11－22,139.90848,35.70094
長谷川商店,東京都江戸川区篠崎町6-8-8,139.90399,35.70118
セブンイレブン谷河内店,東京都江戸川区篠崎町7－12－21,139.90176,35.70338
森田屋酒店,東京都江戸川区篠崎町7-18-1,139.90213,35.70701
ファミリ-マ-ト篠崎町七丁目店,東京都江戸川区篠崎町7-23-11 サンライズ大貫,139.90468,35.70419
サンクス篠崎駅前店,東京都江戸川区篠崎町7-29-11 メナ-しのざき,139.9032,35.70649
スリ-エフ篠崎駅前店,東京都江戸川区篠崎町7-29-2,139.9032,35.70649
ファミリ-マ-ト春江三丁目店,東京都江戸川区春江町3-20-11,139.89015,35.69313
セブンイレブン江戸川春江町3丁目店,東京都江戸川区春江町3－38－11,139.88792,35.69679
セブンイレブン江戸川春江町5丁目店,東京都江戸川区春江町5-15-11,139.873,35.67907
エ-エムピ-エム東大島駅前店,東京都江戸川区小松川1－4－1,139.84917,35.69007
ロ-ソン松江店,東京都江戸川区松江1-7-8,139.86827,35.70175
坂上商店,東京都江戸川区松江2-17-12,139.873,35.70217
セブンイレブン同潤会松江店,東京都江戸川区松江2-32-4,139.87474,35.70268
おれんじ,東京都江戸川区松江2-4-2,139.87238,35.69735
ロ-ソン松江３丁目店,東京都江戸川区松江3-5-1,139.86855,35.69444
セブンイレブン江戸川松江南店,東京都江戸川区松江4-1-1,139.86824,35.69109
セブンイレブン江戸川松江6丁目店,東京都江戸川区松江6－3－2,139.87114,35.68603
ファミリ-マ-ト江戸川松島店,東京都江戸川区松島1-43-12,139.86725,35.70491
セブンイレブン江戸川松島3丁目店,東京都江戸川区松島3－33－1,139.86304,35.70991
セブンイレブン江戸川松島北店,東京都江戸川区松島3-39-8,139.86371,35.71191
セブンイレブン松島店,東京都江戸川区松島4-43-15,139.85947,35.71201
セブンイレブン江戸川菅原橋店,東京都江戸川区松本1-34-1,139.87509,35.71678
セブンイレブン江戸川上一色店,東京都江戸川区上一色1-4-16,139.87047,35.72377
ロ-ソン上篠崎四丁目店,東京都江戸川区上篠崎4-27-5,139.90268,35.7091
ロ-ソン新堀店,東京都江戸川区新堀1-39-8,139.88922,35.70431
ファミリ-マ-ト瑞江一丁目店,東京都江戸川区瑞江1-4-11,139.89299,35.69845
ミニストップ瑞江２丁目店,東京都江戸川区瑞江2-22-5,139.89806,35.69585
サンクス瑞江駅前店,東京都江戸川区瑞江2-5-21 サイトウビル,139.89777,35.69397
ファミリ-マ-ト上平西瑞江二丁目店,東京都江戸川区瑞江2-6-9,139.89661,35.69357
デイリ-ヤマザキ江戸川瑞江3丁目店,東京都江戸川区瑞江3-36-8,139.89388,35.69704
セブンイレブン江戸川西一之江2丁目店,東京都江戸川区西一之江2-26-10,139.88126,35.69786
ＴＣＳたざわ,東京都江戸川区西一之江2-26-11,139.88126,35.69786
セブンイレブン江戸川西一之江3丁目店,東京都江戸川区西一之江3－3－3,139.87611,35.69585
サンクス西一之江店,東京都江戸川区西一之江4丁目8-19,139.87279,35.69544
サンクス西葛西2丁目店,東京都江戸川区西葛西2-21-8,139.85379,35.66699
セブンイレブン西葛西3丁目店,東京都江戸川区西葛西3-15-7,139.85831,35.6651
ロ-ソン西葛西店,東京都江戸川区西葛西3-3-3,139.85558,35.66597
ヤムチャコンビニ４＆５西葛西店,東京都江戸川区西葛西5-11-12,139.86189,35.66483
エ-エムピ-エム西葛西5丁目店,東京都江戸川区西葛西5－2－2,139.85956,35.66616
サンクス西葛西北口店,東京都江戸川区西葛西5-2-9,139.85956,35.66616
ロ-ソン西葛西五丁目店,東京都江戸川区西葛西5-7-8,139.86128,35.66531
サンクス西葛西5丁目店,東京都江戸川区西葛西5丁目1-5,139.85936,35.66496
ポプラ西葛西駅前店,東京都江戸川区西葛西6-13-12,139.85915,35.66354
ファミリ-マ-ト西葛西駅前店,東京都江戸川区西葛西6-15-12,139.86057,35.66418
サンクス西葛西店,東京都江戸川区西葛西6-22-4 アサヒハイツ西葛西,139.8622,35.66407
ポプラ葛西中央通り店,東京都江戸川区西葛西6-23-12,139.86353,35.66396
サンクス江戸川球場店,東京都江戸川区西葛西6-19-23,139.86061,35.6626
ファミリ-マ-ト西葛西メトロ店,東京都江戸川区西葛西6-7-1,139.85826,35.6647
ファミリ-マ-ト西葛西六丁目店,東京都江戸川区西葛西6-9-1,139.85788,35.66369
セブンイレブン江戸川西葛西7丁目店,東京都江戸川区西葛西7－15－15,139.86063,35.65901
ロ-ソン江戸川球場前店,東京都江戸川区西葛西7-3-5,139.8593,35.66194
セブンイレブン江戸川鹿骨店,東京都江戸川区西篠崎1-2-4,139.89351,35.71379
コミュニティ・ストア西小岩ぬまの店,東京都江戸川区西小岩1-13-18,139.87892,35.73176
セブンイレブン小岩駅西口店,東京都江戸川区西小岩1－13－18,139.87892,35.73176
ミニストップ西小岩店,東京都江戸川区西小岩1-19-29,139.87897,35.73255
ロ-ソンストア１００江戸川西小岩１丁目店,東京都江戸川区西小岩1-20-16,139.87935,35.73388
セブンイレブン江戸川西小岩1丁目店,東京都江戸川区西小岩1－21－14,139.88023,35.73419
ミニストップ西小岩１丁目店,東京都江戸川区西小岩1-30-22,139.88428,35.73515
ファミリ-マ-ト小岩駅東店,東京都江戸川区西小岩1丁目27-29 東京グランファ-スト1階,139.88249,35.73477
デイリ-ヤマザキ西小岩3丁目店,東京都江戸川区西小岩3-31-16,139.87985,35.735
セブンイレブン西小岩3丁目店,東京都江戸川区西小岩3－6－14,139.87492,35.73481
サンクス西小岩3丁目店,東京都江戸川区西小岩3丁目37-5,139.87814,35.73907
ファミリ-マ-ト小岩北口店,東京都江戸川区西小岩4-1-20,139.88078,35.73556
ファミリ-マ-ト京成小岩駅西店,東京都江戸川区西小岩5-17,139.88068,35.74152
スリ-エフ西瑞江2丁目店,東京都江戸川区西瑞江2-14-10,139.89613,35.69256
ポプラ西瑞江３丁目店,東京都江戸川区西瑞江3-24-16,139.89044,35.68702
セブンイレブン江戸川西瑞江今井店,東京都江戸川区西瑞江3-32-12,139.88976,35.685
ロ-ソン西瑞江三丁目店,東京都江戸川区西瑞江3-5-2,139.8927,35.68939
セブンイレブン瑞江店,東京都江戸川区西瑞江5-10-4,139.87994,35.67861
ロ-ソン西瑞江五丁目店,東京都江戸川区西瑞江5-7-1,139.88034,35.67956
サンクス船堀1丁目店,東京都江戸川区船堀1-1-38,139.86121,35.68562
セブンイレブン東小松川店,東京都江戸川区船堀1-4-13,139.86398,35.686
ファミリ-マ-ト船堀一丁目店,東京都江戸川区船堀1-8-15,139.86333,35.68377
セブンイレブン江戸川船堀2丁目店,東京都江戸川区船堀2丁目22－16,139.86218,35.6825
ファミリ-マ-ト船堀三丁目店,東京都江戸川区船堀3-2-23,139.86295,35.68166
ファミリ-マ-ト船堀駅前店,東京都江戸川区船堀3-5-7,139.86485,35.68237
ポプラ船堀店,東京都江戸川区船堀3-6-1,139.86429,35.68381
エ-エムピ-エム船堀3丁目店,東京都江戸川区船堀3－9－11,139.86551,35.68189
セブンイレブン江戸川船堀4丁目店,東京都江戸川区船堀4－2－2,139.86479,35.68519
サンクス船堀店,東京都江戸川区船堀4-3-6,139.86516,35.68559
サ-クルＫ江戸川船堀店,東京都江戸川区船堀7丁目6番20号,139.86935,35.67797
セブンイレブン江戸川大杉店,東京都江戸川区大杉4-1-4,139.88055,35.70767
ファミリ-マ-ト大杉五丁目店,東京都江戸川区大杉5-37,139.87956,35.70734
ロ-ソン谷河内町二丁目店,東京都江戸川区谷河内2-15-10,139.90117,35.70202
セブンイレブン江戸川中央1丁目店,東京都江戸川区中央1－1－20,139.86835,35.70385
スリ-エフ江戸川区役所前店,東京都江戸川区中央1-12-7,139.86928,35.70592
ロ-ソン江戸川中央店,東京都江戸川区中央2-18-19,139.8734,35.70819
サンクス江戸川中央店,東京都江戸川区中央2-28-1,139.87476,35.70359
ミニストップ江戸川千葉街道店,東京都江戸川区中央3-2,139.87061,35.7114
ミニストップ江戸川中央３丁目店,東京都江戸川区中央3-22-7,139.87456,35.71138
スリ-エフ江戸川中央店,東京都江戸川区中央4-2-13,139.86661,35.71246
セブンイレブン江戸川中央店,東京都江戸川区中央4-25-21,139.8676,35.70898
セブンイレブン江戸川中葛西1丁目店,東京都江戸川区中葛西1-12-16,139.86795,35.67208
エ-エムピ-エム中葛西1丁目店,東京都江戸川区中葛西1－1－7,139.86685,35.6692
セブンイレブン葛西三角通り店,東京都江戸川区中葛西1-49-16,139.87138,35.67356
スリ-エイト宇喜田店,東京都江戸川区中葛西1-8-6,139.86885,35.67107
エ-エムピ-エム中葛西3丁目店,東京都江戸川区中葛西3－1－15,139.868,35.66436
セブンイレブン江戸川中葛西3丁目店,東京都江戸川区中葛西3－29－6,139.87263,35.66594
ファミリ-マ-ト葛西駅前店,東京都江戸川区中葛西3-34-8,139.87131,35.6642
ロ-ソン中葛西店,東京都江戸川区中葛西3-36,139.87265,35.66522
ファミリ-マ-ト葛西駅北店,東京都江戸川区中葛西3-36-9 第2彦本ビル1Ｆ,139.87265,35.66522
ジャストスポット中葛西店,東京都江戸川区中葛西3-4-16,139.86852,35.66649
ロ-ソンストア１００中葛西４丁目店,東京都江戸川区中葛西4-3-1,139.86563,35.66546
ミニストップ葛西駅前店,東京都江戸川区中葛西5-34-1,139.87192,35.66299
セブンイレブン中葛西5丁目店,東京都江戸川区中葛西5－8－15,139.86646,35.66186
ファミリ-マ-ト中葛西六丁目店,東京都江戸川区中葛西6-1-10,139.86444,35.65934
デ-リ-ヤマザキ長谷川店,東京都江戸川区中葛西6-13-1,139.86713,35.65919
サンクス中葛西店,東京都江戸川区中葛西6-21-10,139.87022,35.66029
スリ-エイト葛西店,東京都江戸川区中葛西7-3-8,139.86418,35.65603
エ-エムピ-エム中葛西8丁目店,東京都江戸川区中葛西8－13－17,139.87143,35.65946
セブンイレブン江戸川中葛西8丁目店,東京都江戸川区中葛西8－3－1,139.86925,35.65613
サンクス葛西左近川親水公園店,東京都江戸川区中葛西8丁目1-1,139.86922,35.65537
セブンイレブン江戸川東葛西1丁目店,東京都江戸川区東葛西1－2－4,139.87614,35.67176
セブンイレブン江戸川東葛西2丁目店,東京都江戸川区東葛西2－14－14,139.87656,35.66752
サンクス葛西新川店,東京都江戸川区東葛西2丁目5-3,139.87509,35.67001
サンクス葛西さくら公園店,東京都江戸川区東葛西4-12-19 アサヒハイツ東葛西,139.88235,35.66293
ミニストップ　東葛西５丁目店,東京都江戸川区東葛西5-13-13,139.87448,35.66394
ホットスパ-東葛西店,東京都江戸川区東葛西5-37-16,139.87862,35.66344
セブンイレブン江戸川東葛西5丁目店,東京都江戸川区東葛西5－45－6,139.88145,35.66597
ミニストップ葛西店,東京都江戸川区東葛西6-14-3,139.87592,35.66166
セブンイレブン葛西駅前店,東京都江戸川区東葛西6-2-1,139.87354,35.66252
セブンイレブン東葛西6丁目店,東京都江戸川区東葛西6－23－1,139.87724,35.66237
モリサキ商店,東京都江戸川区東葛西7-6-12,139.87389,35.65889
ファミリ-マ-ト東葛西七丁目店,東京都江戸川区東葛西7-9-10,139.87508,35.65952
サンクス葛西環七通り店,東京都江戸川区東葛西7丁目2-5,139.87331,35.65977
サンクス東葛西9丁目店,東京都江戸川区東葛西9丁目6-8,139.8817,35.65812
セブンイレブン東小岩店,東京都江戸川区東小岩1-5-3,139.89117,35.72024
スリ-エフ小岩店,東京都江戸川区東小岩3-6-11,139.8903,35.7309
セブンイレブン東小岩5丁目店,東京都江戸川区東小岩5-20-4,139.88892,35.73344
セブンイレブン東小松川2丁目店,東京都江戸川区東小松川2-33-12,139.867,35.69658
セブンイレブン江戸川東松本店,東京都江戸川区東松本1-11-12,139.88721,35.71808
セブンイレブン江戸川東瑞江1丁目店,東京都江戸川区東瑞江1－38－1,139.89967,35.69129
セブンイレブン南葛西1丁目店,東京都江戸川区南葛西1-13-9,139.87198,35.65392
セブンイレブン江戸川南葛西2丁目店,東京都江戸川区南葛西2丁目25－12,139.87689,35.65394
サンクス南葛西3丁目店,東京都江戸川区南葛西3-15-15,139.86876,35.64932
セブンイレブン南葛西4丁目店,東京都江戸川区南葛西4－11,139.87274,35.65152
サンクス南葛西4丁目店,東京都江戸川区南葛西4-13-13,139.87529,35.65151
ファミリ-マ-ト南葛西なぎさ店,東京都江戸川区南葛西6-15-20 エスティ-ム・ＭＳ,139.87915,35.6473
デイリ-ヤマザキ江戸川南葛西6丁目店,東京都江戸川区南葛西6-2-1,139.8768,35.64436
セブンイレブン江戸川南葛西6丁目店,東京都江戸川区南葛西6-20-6,139.87624,35.64756
セブンイレブン篠崎店,東京都江戸川区南篠崎町1-26-21,139.90981,35.69545
デイリ-ヤマザキ南篠崎2丁目店,東京都江戸川区南篠崎町2-37-11,139.90134,35.69391
セブンイレブン江戸川南篠崎2丁目店,東京都江戸川区南篠崎町2－38－16,139.90228,35.69318
エ-エムピ-エム江戸川南篠崎4丁目店,東京都江戸川区南篠崎町4－5－11,139.90039,35.69726
セブンイレブン南篠崎店,東京都江戸川区南篠崎町5-9-12,139.90717,35.69122
セブンイレブン江戸川二枚橋店,東京都江戸川区南小岩4-9-7,139.88159,35.72294
セブンイレブン南小岩5丁目店,東京都江戸川区南小岩5－20－14,139.88249,35.72554
エ-エムピ-エム南小岩二枚橋店,東京都江戸川区南小岩5-2-6,139.88112,35.72296
サンクス南小岩店,東京都江戸川区南小岩6-28-12,139.88129,35.72998
エ-エムピ-エム江戸川南小岩6丁目店,東京都江戸川区南小岩6－30－8,139.8812,35.73107
（有）広瀬屋,東京都江戸川区南小岩7-7-2,139.88231,35.72778
セブンイレブン南小岩7丁目店,東京都江戸川区南小岩7-20-9,139.88318,35.73132
ファミリ-マ-ト小岩駅西口店,東京都江戸川区南小岩7丁目24-15,139.8812,35.73273
セブンイレブン南小岩店,東京都江戸川区南小岩8-1-13,139.88634,35.72804
ファミリ-マ-ト南小岩八丁目店,東京都江戸川区南小岩8-14-5 ソシアルビル,139.88374,35.73367
サ-クルＫ南小岩七丁目店,東京都江戸川区南小岩七丁目27番14号,139.88301,35.73272
ファミリ-マ-ト南小岩七丁目店,東京都江戸川区南小岩七丁目31番11 橋本ビル1Ｆ,139.88412,35.73085
ミニストップ平井南店,東京都江戸川区平井1-10-18,139.84967,35.70084
セブンイレブン平井2丁目店,東京都江戸川区平井2－22－12,139.84694,35.70271
ロ-ソンストア１００江戸川平井３丁目店,東京都江戸川区平井3-12-5,139.84206,35.70441
エ-エムピ-エム平井駅南口店,東京都江戸川区平井3-23-18,139.84332,35.70456
スリ-エフ平井店,東京都江戸川区平井3-24-24,139.84329,35.70516
ファミリ-マ-ト平井駅南口店,東京都江戸川区平井4-11-6,139.84381,35.70617
ロ-ソン平井駅前店,東京都江戸川区平井5-23-5,139.84274,35.70728
サンクス平井5丁目店,東京都江戸川区平井5-32,139.84358,35.70883
セブンイレブン平井6丁目店,東京都江戸川区平井6－23－21,139.84103,35.70796
ロ-ソン平井六丁目店,東京都江戸川区平井6-40-10,139.84331,35.70988
デイリ-ヤマザキ平井西店,東京都江戸川区平井6-76-6,139.84244,35.71434
リカ-＆コンビニエンス小西,東京都江戸川区平井7-17-23,139.83871,35.71403
（有）六軒町酒店,東京都江戸川区北葛西1-3-11,139.85477,35.67814
ファミリ-マ-ト北葛西二丁目店,東京都江戸川区北葛西2-11-18,139.85727,35.67293
セブンイレブン江戸川北葛西2丁目店,東京都江戸川区北葛西2－22－15,139.85857,35.67463
サンクス北葛西店,東京都江戸川区北葛西3-5-12,139.85931,35.67445
ロ-ソン北葛西４丁目店,東京都江戸川区北葛西4-20-5,139.86607,35.67195
セブンイレブン中小岩店,東京都江戸川区北小岩2-22-14,139.88618,35.73703
ロ-ソン京成小岩南口店,東京都江戸川区北小岩2-6-11,139.8831,35.74097
セブンイレブン江戸川店,東京都江戸川区北小岩4-39-7,139.89668,35.74062
ミニストップ京成小岩駅前店,東京都江戸川区北小岩6-18-3,139.88461,35.74335
セブンイレブン北小岩6丁目店,東京都江戸川区北小岩6-16-14,139.8847,35.74274
セブンイレブン北小岩7丁目店,東京都江戸川区北小岩7-13-10,139.89015,35.74414
セブンイレブン北小岩店,東京都江戸川区北小岩8-2-9,139.88147,35.74941
ミニストップ本一色１丁目店,東京都江戸川区本一色1-5-26,139.86829,35.7163
セブンイレブン江戸川臨海町2丁目店,東京都江戸川区臨海町2－1－4,139.85886,35.65245
サンクス葛西ワ-ルド店,東京都江戸川区臨海町2-3-8,139.86284,35.65174
サンクス葛西タ-ミナル店,東京都江戸川区臨海町4-2-1,139.86099,35.64728
ファミリ-マ-ト葛西タ-ミナル前店,東京都江戸川区臨海町5-2-2,139.87,35.64502
湊屋酒店,東京都江東区永代2-23-1,139.7917,35.67228
セブンイレブン江東永代2丁目店,東京都江東区永代2丁目37番28号,139.79219,35.67495
ファミリ-マ-ト越中島三丁目店,東京都江東区越中島3-6-15,139.7984,35.66496
ときわや,東京都江東区猿江1-3-7,139.81145,35.68567
スリ-エフ江東猿江店,東京都江東区猿江2-11-8,139.81552,35.68693
セブンイレブン江東塩浜店,東京都江東区塩浜2-11-29,139.80899,35.66355
サンクス汐見運河店,東京都江東区塩浜2-12-7,139.81033,35.66304
サンクス東陽橋店,東京都江東区塩浜2丁目24-10-114,139.81477,35.66422
サンクス江東しおはま店,東京都江東区塩浜2丁目5-10,139.80484,35.66124
ファミリ-マ-ト牡丹一丁目店,東京都江東区牡丹1-2-2,139.7933,35.67052
セブンイレブン江東牡丹1丁目店,東京都江東区牡丹1丁目2-5,139.7933,35.67052
セブンイレブン牡丹店,東京都江東区牡丹3-20-4,139.80003,35.66828
セブンイレブン江東海辺店,東京都江東区海辺2-7,139.81754,35.68055
ロ-ソン亀戸１丁目店,東京都江東区亀戸1-38-4,139.82439,35.69619
生活彩家日鐵ＮＤタワ-店,東京都江東区亀戸1-5-7,139.82037,35.69526
ロ-ソン亀戸二丁目店,東京都江東区亀戸2-18-10,139.8239,35.69772
セブンイレブン江東亀戸2丁目店,東京都江東区亀戸2-17-14,139.82281,35.69765
エ-エムピ-エム江東亀戸2丁目店,東京都江東区亀戸2－33－4,139.82367,35.70005
セブンイレブン亀戸十三間通り店,東京都江東区亀戸2－36－13,139.8251,35.70024
ファミリ-マ-ト亀戸十三間通り店,東京都江東区亀戸2-37-11 福島ビル,139.82504,35.70089
ミニストップ亀戸２丁目店,東京都江東区亀戸2-45-6,139.82506,35.70142
セブンイレブン亀戸三丁目店,東京都江東区亀戸3-23-1,139.82196,35.70419
サンクス亀戸4丁目店,東京都江東区亀戸4-15-3,139.8278,35.70143
ファミリ-マ-ト亀戸四丁目店,東京都江東区亀戸4-45-11,139.82924,35.702
ロ-ソン亀戸五丁目店,東京都江東区亀戸5-5-1,139.82709,35.69835
ロ-ソン亀戸南店,東京都江東区亀戸6-1-15,139.8262,35.69727
ロ-ソン江東亀戸六丁目店,東京都江東区亀戸6-29-5,139.82765,35.69633
セブンイレブン亀戸昭和橋通り店,東京都江東区亀戸6-37-9,139.83109,35.69489
エ-エムピ-エム江東亀戸6丁目店,東京都江東区亀戸6－40－16,139.83052,35.69587
サンクス亀戸店,東京都江東区亀戸6-56-8 中銀亀戸マンション,139.83067,35.69717
セブンイレブン江東亀戸6丁目店,東京都江東区亀戸6丁目13-3,139.82616,35.69476
セブンイレブン亀戸駅東口店,東京都江東区亀戸6丁目57－20,139.82913,35.69705
ロ-ソン亀戸七丁目店,東京都江東区亀戸7-10-16,139.83456,35.69757
（株）カナメ屋,東京都江東区亀戸7-28-9,139.83731,35.69838
ファミリ-マ-ト亀戸中之橋店,東京都江東区亀戸7-60-12,139.8372,35.69522
セブンイレブン江東亀戸7丁目店,東京都江東区亀戸7-43-2,139.83456,35.69671
ロ-ソン亀戸水神店,東京都江東区亀戸8-14-38,139.83304,35.7008
ミニストップ亀戸９丁目店,東京都江東区亀戸9-11-1,139.84602,35.69605
ファミリ-マ-ト亀戸九丁目店,東京都江東区亀戸9-23-12,139.84187,35.69771
スリ-エイト江東琴平店,東京都江東区古石場2-14-1,139.80005,35.66684
ファミリ-マ-ト鈴屋深川高橋店,東京都江東区高橋12-1,139.79881,35.68522
ファミリ-マ-ト堀田深川佐賀店,東京都江東区佐賀1-1-16,139.78979,35.67825
サンクス江東清澄店,東京都江東区三好1丁目8-3,139.7993,35.68032
ロ-ソン枝川１丁目店,東京都江東区枝川1-3-17,139.80412,35.65822
サンクス江東枝川2丁目店,東京都江東区枝川2-27-4,139.80885,35.65751
セブンイレブン江東枝川2丁目店,東京都江東区枝川2－2－8,139.80687,35.65919
（有）吉田屋商店,東京都江東区枝川2-3-9,139.8055,35.65908
セブンイレブン江東住吉2丁目店,東京都江東区住吉2－7－6,139.8154,35.68849
ロ-ソン江東常盤二丁目店,東京都江東区常盤2-9-7,139.79805,35.68591
ファミリ-マ-ト江東新砂店,東京都江東区新砂3-2-1,139.82968,35.66622
ロ-ソン江東高齢者医療センタ-店,東京都江東区新砂3-3-20,139.83261,35.66584
ロ-ソン新大橋店,東京都江東区新大橋1-9-6,139.7933,35.68908
セブンイレブン江東新大橋3丁目店,東京都江東区新大橋3－9－9,139.79539,35.68827
デイリ-ヤマザキ新木場NECビル店,東京都江東区新木場1-18-7,139.82693,35.6439
（株）サクマ　新木場店,東京都江東区新木場1-6-1,139.83113,35.64644
サンクス新木場店,東京都江東区新木場1-6-25,139.83113,35.64644
デイリ-ヤマザキ新木場駅前店,東京都江東区新木場1-6-26,139.83113,35.64644
ロ-ソン新木場一丁目店,東京都江東区新木場1-8-19,139.83113,35.64644
サンクス新木場1丁目店,東京都江東区新木場1丁目11,139.83604,35.64202
エ-エムピ-エム新木場DC店,東京都江東区新木場1丁目12番10号,139.83588,35.64005
セブンイレブン新木場1丁目店,東京都江東区新木場1丁目4－7,139.82422,35.64394
サンクス江東新木場2丁目店,東京都江東区新木場2-10-5,139.82356,35.63775
セブンイレブン新木場3丁目店,東京都江東区新木場3－7－9,139.83566,35.63749
エ-エムピ-エム森下1丁目店,東京都江東区森下1－5－5,139.798,35.68653
エ-エムピ-エム森下2丁目店,東京都江東区森下2－17－6,139.79858,35.68776
セブンイレブン森下店,東京都江東区森下3-1-11,139.8009,35.68478
セブンイレブン江東森下4丁目店,東京都江東区森下4-15-7,139.80458,35.68599
ロ-ソン森下五丁目店,東京都江東区森下5-20-2,139.8064,35.68606
ミニストップ深川１丁目店,東京都江東区深川1-1-1,139.79562,35.67419
ロ-ソン深川一丁目店,東京都江東区深川1-9-10,139.79695,35.67738
ロ-ソン清澄三丁目店,東京都江東区清澄3-4-8,139.79828,35.68159
サンクスお台場店,東京都江東区青海1丁目2-10,139.78065,35.62622
エ-エムピ-エム東京テレコムセンタ-店,東京都江東区青海2-38,139.78175,35.61024
エ-エムピ-エム青海フロンティアビル店,東京都江東区青海2-43,139.77899,35.61842
サンクスTIME24店,東京都江東区青海2-45,139.77696,35.61773
デイリ-ヤマザキ臨海副都心青海店,東京都江東区青海2-79,139.77643,35.62111
サンクス千石1丁目店,東京都江東区千石1-4-24,139.81175,35.67738
セブンイレブン江東千石店,東京都江東区千石2-2-5,139.81567,35.6769
サンフェスタ,東京都江東区千田7-17,139.81531,35.68121
セブンイレブン江東扇橋店,東京都江東区扇橋1-13-9,139.81235,35.68309
ミニストップ元加賀店,東京都江東区扇橋1-15-3,139.81097,35.68302
ミニストップ扇橋店,東京都江東区扇橋3-3-6,139.81873,35.68275
セブンイレブン西大島駅前店,東京都江東区大島1-34-10,139.82591,35.68785
ミニストップ大島１丁目店,東京都江東区大島1-34-14,139.82591,35.68785
セブンイレブン江東大島1丁目店,東京都江東区大島1丁目1－18,139.82199,35.68525
ファミリ-マ-ト鈴屋大島二丁目店,東京都江東区大島2-19-12,139.82347,35.68953
ファミリ-マ-ト西大島店,東京都江東区大島2-35-12,139.82582,35.69186
ファミリ-マ-ト西大島駅前店,東京都江東区大島3-1-6,139.82718,35.68989
ロ-ソン西大島,東京都江東区大島4-5-11,139.82684,35.68911
ファミリ-マ-ト大島五丁目店,東京都江東区大島5-32-12,139.83553,35.68873
セブンイレブン江東大島5丁目店,東京都江東区大島5－32－5,139.83553,35.68873
ロ-ソン大島五丁目店,東京都江東区大島5-47-6,139.83769,35.68967
ミニストップ大島５丁目店,東京都江東区大島5-48-15,139.83763,35.68895
スリ-エフ大島5丁目店,東京都江東区大島5-51-9,139.83789,35.68775
ロ-ソンストア１００江東大島六丁目団地店,東京都江東区大島6-1,139.83276,35.69167
コミュニティ・ストアたかしまや中の橋店,東京都江東区大島6-22-8,139.83708,35.69303
ロ-ソン東大島店,東京都江東区大島7-39-1,139.84348,35.69144
スリ-エフ大島7丁目店,東京都江東区大島7-41-10,139.84311,35.69275
セブンイレブン江東大島7丁目店,東京都江東区大島7-22-15,139.83987,35.69047
セブンイレブン江東大島8丁目店,東京都江東区大島8丁目42－11,139.84401,35.69002
ファミリ-マ-ト大島四丁目店,東京都江東区大島四丁目1番32号,139.8269,35.68566
ロ-ソン辰巳団地店,東京都江東区辰巳1-2-9,139.80811,35.64912
ファミリ-マ-ト辰巳一丁目店,東京都江東区辰巳1-4-11,139.80769,35.65213
サンクスポ-トストア辰巳店,東京都江東区辰巳2丁目1,139.81587,35.64718
デイリ-ヤマザキ江東辰巳3丁目店,東京都江東区辰巳3-16-6,139.81604,35.64299
ロ-ソン辰巳三丁目店,東京都江東区辰巳3-26-23,139.81952,35.64308
サンクス新木場埠頭店,東京都江東区辰巳3丁目26-27,139.81952,35.64308
ミニストップ潮見駅前店,東京都江東区潮見2-6-1,139.81638,35.65944
ロ-ソン冬木店,東京都江東区冬木19-4,139.80316,35.67554
（株）オクムラ,東京都江東区冬木23-13,139.7998,35.67558
セブンイレブン江東冬木店,東京都江東区冬木5-1,139.80244,35.67362
ファミリ-マ-ト東雲橋店,東京都江東区東雲1-10-18,139.8036,35.65083
エ-エムピ-エム江東東雲1丁目店,東京都江東区東雲1－9－11－104,139.80682,35.64558
セブンイレブン東雲1丁目店,東京都江東区東雲1丁目2－8－101,139.8009,35.64883
コミュニティ・ストアぬ利彦東雲店,東京都江東区東雲2-8-10,139.80461,35.64103
セブンイレブン江東東砂1丁目店,東京都江東区東砂1－3－39,139.83957,35.68481
デイリ-ヤマザキ江東東砂1丁目店,東京都江東区東砂1-3-6,139.83957,35.68481
デイリ-ヤマザキ江東東砂店,東京都江東区東砂3-16-26,139.84224,35.68194
ファミリ-マ-ト東砂三丁目店,東京都江東区東砂3-17-3,139.8436,35.68105
デイリ-ヤマザキ東砂3丁目店,東京都江東区東砂3-23-9,139.84283,35.67772
セブンイレブン江東東砂3丁目店,東京都江東区東砂3-15-24,139.84116,35.68096
セブンイレブン江東東砂7丁目店,東京都江東区東砂7－10－5,139.83821,35.672
ミニストップ東砂店,東京都江東区東砂7-1-1,139.83812,35.67022
ミニストップ東砂７丁目店,東京都江東区東砂7-18-10,139.83717,35.67504
セブンイレブン江東東砂8丁目店,東京都江東区東砂8-19-9,139.84149,35.66774
サンクス東陽1丁目店,東京都江東区東陽1-16-12,139.8101,35.66738
エ-エムピ-エム東陽2丁目店,東京都江東区東陽2-4-46,139.81812,35.6687
コミュニティ・ストア東陽町サンヒダカ店,東京都江東区東陽2-4-29,139.81812,35.6687
コンビニエンスさくま,東京都江東区東陽3-18-9,139.81122,35.66991
セブンイレブン東陽店,東京都江東区東陽3-21-6,139.81137,35.66881
セブンイレブン江東東陽町駅前店,東京都江東区東陽3－27－18,139.81564,35.6699
サンクス東陽公園店,東京都江東区東陽3-27-30,139.81564,35.6699
ロ-ソン東陽三丁目店,東京都江東区東陽3-7-10,139.80959,35.66964
ロ-ソン東陽町店,東京都江東区東陽4-10-8,139.81662,35.67097
デイリ-ヤマザキ東陽町駅前店,東京都江東区東陽4-1-13,139.81711,35.66933
デイリ-ヤマザキ東陽町店,東京都江東区東陽4-11-33,139.81738,35.67311
エ-エムピ-エム東陽町駅前店,東京都江東区東陽4-1-2,139.81711,35.66933
サンクス東陽4丁目店,東京都江東区東陽4-6-19,139.8194,35.67039
ミニストップ東陽５丁目店,東京都江東区東陽5-29-38,139.81305,35.67284
ファミリ-マ-ト東陽六丁目店,東京都江東区東陽6-2-13,139.81256,35.67361
エ-エムピ-エム東京イ-スト21店,東京都江東区東陽6－3－2,139.81474,35.67485
ファミリ-マ-ト南砂一丁目店,東京都江東区南砂1-10-11,139.82361,35.67905
セブンイレブン江東南砂1丁目店,東京都江東区南砂1－5－20,139.82146,35.68092
セブンイレブン江東南砂2丁目店,東京都江東区南砂2－10－12,139.82025,35.67238
ポプラ南砂２丁目店,東京都江東区南砂2-25-7,139.8246,35.67474
サンクス南砂2丁目店,東京都江東区南砂2-28-3 サンエイビル,139.82239,35.67529
サンクス江東南砂店,東京都江東区南砂2丁目2-11,139.82359,35.66954
ミニストップ南砂駅前店,東京都江東区南砂3-14-1,139.83255,35.6684
セブンイレブン江東南砂3丁目店,東京都江東区南砂3丁目9番3,139.82845,35.66988
ココストア南砂藤井店,東京都江東区南砂4-1-12,139.82698,35.67382
ロ-ソン南砂五丁目店,東京都江東区南砂5-23-8,139.83423,35.67561
ファミリ-マ-ト江東境川店,東京都江東区南砂5-4-8,139.82782,35.67642
サンクス南砂元八幡通り店,東京都江東区南砂6-2-1,139.83435,35.67129
エ-エムピ-エム南砂7丁目店,東京都江東区南砂7－4－6,139.83409,35.67011
サンクス江東南砂四丁目店,東京都江東区南砂四丁目4-20,139.82867,35.67475
ファミリ-マ-ト清澄白河駅前店,東京都江東区白河1-6-12,139.79938,35.68231
ポプラ白河２丁目店,東京都江東区白河2-3-1,139.80217,35.68114
ファミリ-マ-ト岡田白河二丁目店,東京都江東区白河2-7-8,139.80321,35.682
デイリ-ヤマザキ白河店,東京都江東区白河3-1-18,139.80403,35.68145
セブンイレブン江東白河3丁目店,東京都江東区白河3－4－3－102,139.80566,35.68214
（有）サクライ,東京都江東区白河4-1-19,139.80695,35.68147
サンクス門前仲町店,東京都江東区富岡1-23-16,139.79936,35.67116
デイリ-ヤマザキ江東門前仲町駅前店,東京都江東区富岡1-6-6,139.79691,35.67117
ファミリ-マ-ト福住二丁目店,東京都江東区福住2丁目3-4,139.79408,35.67732
ファミリ-マ-ト平野三丁目店,東京都江東区平野3-2-4,139.80544,35.67676
ロ-ソン平野三丁目店,東京都江東区平野3-5-9,139.80644,35.67885
サンクス豊洲1丁目店,東京都江東区豊洲1-2-39,139.79288,35.66069
セブンイレブン豊洲3丁目店,東京都江東区豊洲3－1－1,139.79329,35.65924
生活彩家豊洲センタ-ビル店,東京都江東区豊洲3-3-3,139.79707,35.65632
ファミリ-マ-ト豊洲センタ-ビルアネックス店,東京都江東区豊洲3-3-9 豊洲センタ-ビルアネックス,139.79707,35.65632
ナチュラルロ-ソン豊洲三丁目店,東京都江東区豊洲3-5-21,139.79581,35.65873
ファミリ-マ-ト芝浦工大豊洲キャンパス店,東京都江東区豊洲3-7-5,139.79512,35.66071
ファミリ-マ-ト豊洲四丁目店,東京都江東区豊洲4-1-3,139.79749,35.65417
セブンイレブン豊洲店,東京都江東区豊洲4-6-1,139.79836,35.65537
サンクス豊洲店,東京都江東区豊洲5-2-10,139.79532,35.65302
デイリ-ヤマザキ江東豊洲駅前店,東京都江東区豊洲5-5-1-102,139.79678,35.65314
エ-エムピ-エム豊洲ISTビル店,東京都江東区豊洲5－6－52,139.79823,35.65055
セブンイレブン江東北砂3丁目店,東京都江東区北砂3－2－2,139.82774,35.68204
ロ-ソン北砂３丁目店,東京都江東区北砂3-4-8,139.82776,35.6846
デイリ-ヤマザキ北砂3丁目店,東京都江東区北砂3-6-14,139.82988,35.68377
サンクス江東北砂店,東京都江東区北砂4-32-14,139.83286,35.67696
グリ-ンサ-クル北砂店,東京都江東区北砂4-4-14,139.82797,35.67778
スリ-エフ砂町銀座通り店,東京都江東区北砂4-6-18,139.82826,35.67817
サンクス北砂5丁目店,東京都江東区北砂5-14-16 砂銀ビル,139.83453,35.68045
ファミリ-マ-ト北砂五丁目店,東京都江東区北砂5-21-13,139.83118,35.68323
ファミリ-マ-ト北砂六丁目店,東京都江東区北砂6-12-7,139.83644,35.68386
ミニストップ北砂６丁目店,東京都江東区北砂6-27-21,139.83766,35.68056
デイリ-ヤマザキ丸八通り店,東京都江東区北砂7-4-1,139.83484,35.67872
スリ-エフ江東毛利1丁目店,東京都江東区毛利1-11-12,139.81496,35.69084
（有）松井商店,東京都江東区毛利1-6-10,139.8131,35.6917
セブンイレブン江東毛利店,東京都江東区毛利1-6-10,139.8131,35.6917
セブンイレブン江東木場1丁目店,東京都江東区木場1－5－25,139.80396,35.6668
ファミリ-マ-ト木場二丁目店,東京都江東区木場2-19,139.80534,35.6697
（株）日比野商店,東京都江東区木場2-6-3,139.8031,35.66933
サンクス木場2丁目店,東京都江東区木場2丁目6-3,139.8031,35.66933
サンクス木場公園店,東京都江東区木場3丁目18-14,139.80597,35.67326
八百周,東京都江東区木場5-1-5,139.80635,35.66898
ファミリ-マ-ト木場駅前店,東京都江東区木場5-2-5,139.80641,35.66917
ロ-ソン木場店,東京都江東区木場5-4-11,139.80696,35.66967
サンクス江東木場店,東京都江東区木場6-4-4 梅本ビル1F,139.80666,35.6666
エ-エムピ-エム門前仲町1丁目店,東京都江東区門前仲町1－10－1,139.79378,35.67395
ファミリ-マ-ト門前仲町一丁目店,東京都江東区門前仲町1-5-5,139.79338,35.67273
ファミリ-マ-ト門前仲町駅前店,東京都江東区門前仲町1-7-12 木屋源ビル,139.79449,35.67289
サンクス門前仲町1丁目店,東京都江東区門前仲町1-8-9,139.79468,35.67314
ファミリ-マ-ト門前仲町店,東京都江東区門前仲町2-3-8,139.79529,35.67185
セブンイレブン江東門前仲町店,東京都江東区門前仲町2-6-1,139.79565,35.67273
デイリ-ヤマザキ江東有明1丁目店,東京都江東区有明1-4-29,139.78592,35.63658
サ-クルＫ江東有明一丁目店,東京都江東区有明1丁目1番16号,139.79591,35.64233
サンクス国際展示場駅前店,東京都江東区有明2-5-24,139.79219,35.63532
セブンイレブンTOC有明店,東京都江東区有明2－5－7,139.79219,35.63532
ミニストップＷＡＮＺＡＡＲＩＡＫＥ店,東京都江東区有明3-1-22,139.78586,35.62993
サンクス有明フロンティア店,東京都江東区有明3-1-25-106,139.78586,35.62993
エ-エムピ-エム東京ビッグサイト店,東京都江東区有明3-21-1,139.79495,35.62863
ファミリ-マ-ト東京ビッグサイト店,東京都江東区有明3-21-1 東京ビッグサイト正門,139.79495,35.62863
エ-エムピ-エム東京ビッグサイト東展示棟店,東京都江東区有明3－21－1東京国際展示場東展示棟,139.79495,35.62863
ファミリ-マ-ト愛宕グリ-ンヒルズ店,東京都港区愛宕2-5-1,139.74902,35.66206
エ-エムピ-エムニュ-ピア竹芝店,東京都港区海岸1-16-1,139.76239,35.653
セブンイレブン港区海岸1丁目店,東京都港区海岸1－2－3,139.75906,35.6569
エ-エムピ-エム竹芝ふ頭前店,東京都港区海岸1-9-11,139.76173,35.65565
デイリ-ヤマザキ竹芝店,東京都港区海岸1-9-18,139.76173,35.65565
ポ-トストア日の出,東京都港区海岸2-7-91,139.75954,35.6479
ポ-トストア芝浦,東京都港区海岸3-14-24,139.75507,35.64126
ジユンマ-ト,東京都港区海岸3-19-2,139.75648,35.6417
エ-エムピ-エムMSCセンタ-ビル店,東京都港区海岸3－22－23,139.7572,35.6417
新鮮組アポロン海岸店,東京都港区海岸3-9-15,139.75392,35.63872
サンクス港海岸3丁目店,東京都港区海岸3丁目18-1,139.75645,35.64346
エ-エムピ-エム元赤坂1丁目店,東京都港区元赤坂1－3－9,139.7339,35.67708
サンクス元麻布店,東京都港区元麻布2-2-12,139.72653,35.65455
ナチュラルロ-ソン元麻布店,東京都港区元麻布3-1-34,139.72839,35.65775
エ-エムピ-エム元麻布3丁目店,東京都港区元麻布3－1－38,139.72839,35.65775
エ-エムピ-エム虎ノ門霞ヶ関店,東京都港区虎ノ門1－1－20,139.74927,35.67067
ファミリ-マ-ト虎ノ門一丁目店,東京都港区虎ノ門1-12-1,139.7498,35.66868
セブンイレブン虎ノ門駅前店,東京都港区虎ノ門1－1－23,139.74927,35.67067
セブンイレブン虎ノ門1丁目店,東京都港区虎ノ門1-4-6,139.75078,35.66967
サンクス虎ノ門1丁目店,東京都港区虎ノ門1-16-4,139.7489,35.66845
ロ-ソン虎ノ門一丁目店,東京都港区虎ノ門1-19-5,139.75018,35.6675
ロ-ソン虎ノ門桜田通店,東京都港区虎ノ門1-21-18,139.74869,35.66799
セブンイレブン虎ノ門1丁目桜田通り店,東京都港区虎ノ門1－22－15,139.74808,35.66726
生活彩家虎ノ門ＪＴビル店,東京都港区虎ノ門2-2-1,139.74557,35.66901
エ-エムピ-エム虎ノ門桜田通り店,東京都港区虎ノ門2-6-7,139.74728,35.6671
ロ-ソン虎ノ門四丁目店,東京都港区虎ノ門4-1-13,139.74449,35.66539
エ-エムピ-エム虎ノ門城山ヒルズ前店,東京都港区虎ノ門4-1-19,139.74449,35.66539
セブンイレブン虎ノ門タワ－ズオフィス店,東京都港区虎ノ門4－1－28,139.74449,35.66539
サンクス神谷町駅前店,東京都港区虎ノ門4-1-6,139.74449,35.66539
ロ-ソン城山ガ-デン店,東京都港区虎ノ門4-3-1,139.74318,35.66416
エ-エムピ-エム神谷町MTビル店,東京都港区虎ノ門4－3－20,139.74318,35.66416
セブンイレブン神谷町オランダヒルズ店,東京都港区虎ノ門5-11-2,139.74431,35.66165
セブンイレブン虎ノ門5丁目店,東京都港区虎ノ門5－12－1,139.7451,35.66264
エ-エムピ-エム地下鉄神谷町駅店,東京都港区虎ノ門5-1-5,139.74535,35.66372
ファミリ-マ-ト虎ノ門愛宕下通り店,東京都港区虎ノ門一丁目5-8,139.75069,35.66946
ファミリ-マ-トソニ-シティ内店,東京都港区港南1-7-1,139.74403,35.63116
（株）エムシ-エムコ-ポレ-ション,東京都港区港南1-9-1,139.7421,35.63075
ファミリ-マ-ト品川駅港南口店,東京都港区港南1-9-32 ＮＴＴＤＡＴＡ品川ビル別館,139.7421,35.63075
サンクス港南楽水橋店,東京都港区港南2-11-1,139.74559,35.62407
スリ-エフ港区港南2丁目店,東京都港区港南2-12-27,139.74539,35.62576
ナチュラルロ-ソン品川インタ-シティ店,東京都港区港南2-15-1,139.74193,35.62663
ジャストスポット品川インタ-シティ店,東京都港区港南2-15-2,139.74193,35.62663
セブンイレブン品川イ－ストワンタワ－店,東京都港区港南2－16－1,139.74048,35.62658
ロ-ソン品川グランパサ-ジュ店,東京都港区港南2-16-3,139.74048,35.62658
ナチュラルロ-ソンキヤノンＳタワ-店,東京都港区港南2-16-6,139.74048,35.62658
デイリ-ヤマザキ京王品川ビル店,東京都港区港南2-17-1,139.73933,35.62545
エ-エムピ-エム品川駅東店,東京都港区港南2-4-7,139.74425,35.62851
セブンイレブン品川駅港南口店,東京都港区港南2-5-3,139.74355,35.62855
エ-エムピ-エム港南3丁目店,東京都港区港南3丁目5番10号,139.74756,35.6332
スリ-エフ港区港南3丁目店,東京都港区港南3丁目7-3,139.74934,35.63216
エ-エムピ-エムリバ-ジュ品川店,東京都港区港南4-1-8,139.74672,35.63031
ファミリ-マ-ト港南四丁目店,東京都港区港南4-7-55,139.75143,35.6302
サンクス品川埠頭店,東京都港区港南5-4-38,139.75674,35.62683
エ-エムピ-エム品川埠頭店,東京都港区港南5－5－30,139.75676,35.62854
セブンイレブン魚籃坂店,東京都港区高輪1-1-11,139.73561,35.64465
セブンイレブン高輪店,東京都港区高輪1-26-13,139.73251,35.63739
エ-エムピ-エム高輪1丁目店,東京都港区高輪1－27－47,139.73241,35.63684
ロ-ソン高輪店,東京都港区高輪2-14-14,139.73787,35.63558
デイリ-ヤマザキ高輪本店,東京都港区高輪2-16-37,139.73897,35.63899
コミュニティ・ストア高輪ミリ＆リッチ店,東京都港区高輪2-20-30,139.73987,35.63781
ミニストップ高輪３丁目店,東京都港区高輪3-10-7,139.73177,35.63126
セブンイレブン品川駅前店,東京都港区高輪3-25-20,139.73787,35.63049
スリ-エフ高輪3丁目店,東京都港区高輪3丁目4番1号,139.73177,35.6348
ファミリ-マ-ト高輪四丁目店,東京都港区高輪4-20-3,139.73506,35.62627
セブンイレブン港区高輪4丁目店,東京都港区高輪4－24－58,139.73526,35.62541
セブンイレブン品川プリンスホテル店,東京都港区高輪4丁目10－30,139.73534,35.62814
エ-エムピ-エム三田1丁目店,東京都港区三田1－2－18,139.74051,35.65499
セブンイレブン済生会中央病院店,東京都港区三田1-4-17,139.7426,35.65325
ファミリ-マ-ト三田二丁目店,東京都港区三田2-10-6,139.74455,35.65073
エ-エムピ-エム三田2丁目店,東京都港区三田2－7－9,139.74457,35.65113
ファミリ-マ-ト三田三丁目店,東京都港区三田3-13-12 三田MTビル,139.74345,35.64378
エ-エムピ-エム慶応大学前店,東京都港区三田3-2-1,139.74228,35.64714
セブンイレブン港区三田3丁目店,東京都港区三田3-7－15,139.74155,35.64282
エ-エムピ-エム三田3丁目店,東京都港区三田3－4－6,139.74353,35.64626
リ-ベンハウス三田ハイツビル店,東京都港区三田3-5-27,139.74329,35.64491
ジャストスポット三田店,東京都港区三田3-9-9,139.74075,35.64135
ファミリ-マ-ト泉岳寺北店,東京都港区三田3丁目11-34 センチュリ-三田ビル,139.74217,35.64215
エ-エムピ-エム泉岳寺駅前店,東京都港区三田4-19-21,139.73955,35.64116
新鮮組高輪店,東京都港区三田4-19-27,139.73955,35.64116
コア三田店,東京都港区三田5-18-3,139.73691,35.6446
ロ-ソン金杉橋店,東京都港区芝1-5-12,139.75439,35.65205
（株）逸品,東京都港区芝2-20-8,139.74988,35.65165
セブンイレブン港区芝2丁目店,東京都港区芝2-16-7,139.75212,35.65151
ロ-ソン港芝二丁目店,東京都港区芝2-29-12,139.75266,35.64984
エ-エムピ-エム芝2丁目店,東京都港区芝2－5－10,139.75162,35.65265
ロ-ソン芝公園駅前店,東京都港区芝2-7-2,139.74997,35.65227
エ-エムピ-エム芝公園店,東京都港区芝3-2-11,139.74644,35.65348
ロ-ソン芝公園南店,東京都港区芝3-3-12,139.74768,35.65297
セブンイレブン港区芝3丁目店,東京都港区芝3-15-9,139.74533,35.65353
ロ-ソン芝三丁目店,東京都港区芝3-34-1,139.74771,35.65024
サンクス芝公園店,東京都港区芝3-5-5,139.7487,35.65234
エ-エムピ-エム田町駅北店,東京都港区芝4-13-3,139.74973,35.64764
エ-エムピ-エム芝4丁目店,東京都港区芝4－3－10,139.75026,35.64882
サンクス芝4丁目店,東京都港区芝4-7-6 芝ビルディング1F,139.75237,35.64906
ファミリ-マ-ト芝五丁目店,東京都港区芝5-10-8,139.7462,35.64926
セブンイレブン港区芝5丁目店,東京都港区芝5－14－10,139.74492,35.64837
ロ-ソン慶応大学前店,東京都港区芝5-14-14,139.74492,35.64837
エ-エムピ-エム三田駅前店,東京都港区芝5-19-7,139.7478,35.64756
ロ-ソン芝５丁目店,東京都港区芝5-27-10,139.74622,35.64704
ファミリ-マ-ト三田ステ-ションビル店,東京都港区芝5-31-7 三田ステ-ションビル3Ｆ,139.74626,35.64667
ロ-ソン田町駅三田口店,東京都港区芝5-32-14,139.74757,35.64725
サンクス田町駅前店,東京都港区芝5-33-7,139.74821,35.64656
ロ-ソン新田町ビル店,東京都港区芝5-34-6,139.74687,35.64597
ファミリ-マ-ト東芝ビル店,東京都港区芝浦1-1-1,139.75842,35.65126
コミュニティ・ストア芝浦カピラ店,東京都港区芝浦1-13-10,139.75323,35.64647
ジャストスポットシ-バンス・ア・モ-ル店,東京都港区芝浦1-2-1,139.7567,35.65002
サンクス芝浦シ-バンス前店,東京都港区芝浦1-3-2-101 モアグランデ浜松町,139.7556,35.65005
エ-エムピ-エム芝浦2丁目店,東京都港区芝浦2－17－12,139.75262,35.64518
ロ-ソン芝浦２丁目店,東京都港区芝浦2-4-1,139.75441,35.64495
セブンイレブン芝浦ベイワ－ド店,東京都港区芝浦2－6－11,139.75337,35.64408
ロ-ソン田町駅東口店,東京都港区芝浦3-13-1,139.74878,35.64297
ナチュラルロ-ソン芝浦３丁目店,東京都港区芝浦3-13-16,139.74878,35.64297
サンクス田町東口店,東京都港区芝浦3-13-3 芝浦SECビル,139.74878,35.64297
ロ-ソンベイコ-ト芝浦店,東京都港区芝浦3-5-25,139.74741,35.64334
ロ-ソン芝浦工大前店,東京都港区芝浦3-7-13,139.75012,35.64405
ナチュラルロ-ソン芝浦海岸通店,東京都港区芝浦4-13-23,139.74823,35.64037
ヤマザキＹショップ芝浦店,東京都港区芝浦4-17-32,139.74748,35.63692
ナチュラルロ-ソン芝浦アイランドケ-プ店,東京都港区芝浦4-19-1,139.75064,35.63762
ナチュラルロ-ソン芝浦アイランドグロ-ブ店,東京都港区芝浦4-21-1,139.75113,35.64043
コミュニティ・ストア芝浦みなとや店,東京都港区芝浦4-2-22,139.74445,35.64239
ロ-ソン芝浦４丁目店,東京都港区芝浦4-9-18,139.74644,35.64014
ファミリ-マ-ト田町駅西口店,東京都港区芝五丁目31-15 田町我妻ビル,139.74626,35.64667
ファミリ-マ-ト田町店,東京都港区芝五丁目34-2,139.74687,35.64597
エ-エムピ-エム芝公園1丁目店,東京都港区芝公園1－2－12,139.75241,35.65989
エ-エムピ-エム芝増上寺前店,東京都港区芝公園2-2-22,139.75114,35.65661
ファミリ-マ-ト東京タワ-店,東京都港区芝公園4-2-8,139.74542,35.65854
セブンイレブン芝大門1丁目店,東京都港区芝大門1－14－6,139.75372,35.65729
サンクス芝大門店,東京都港区芝大門1-16-7 幸伸ビル1F,139.75441,35.65725
ロ-ソン芝大門店,東京都港区芝大門1-4-4,139.7545,35.65796
ナチュラルロ-ソン芝大門一丁目店,東京都港区芝大門1-6-3,139.7541,35.65798
ロ-ソン芝赤門通店,東京都港区芝大門2-1-18,139.75302,35.65593
ロ-ソン芝大門二丁目店,東京都港区芝大門2-9-16,139.75285,35.65429
ロ-ソン新橋１丁目店,東京都港区新橋1-15-7,139.75751,35.66801
セブンイレブン新橋1丁目店,東京都港区新橋1－16－4,139.75691,35.66822
ミニストップ新橋１丁目店,東京都港区新橋1-18-1,139.75595,35.66866
エ-エムピ-エム新橋2丁目店,東京都港区新橋2－10－5,139.75574,35.66714
ロ-ソン新橋２丁目店,東京都港区新橋2-12-1,139.75485,35.66726
ファミリ-マ-ト新橋烏森通り店,東京都港区新橋2-15-17,139.75671,35.6664
ファミリ-マ-ト新橋二丁目店,東京都港区新橋2-19-2 新橋藤ビル,139.75955,35.66676
ファミリ-マ-ト新橋赤レンガ通り店,東京都港区新橋3-7-9,139.75488,35.66539
サンクス新橋西口通り店,東京都港区新橋4-19-10,139.75764,35.66432
ミニストップ新橋５丁目店,東京都港区新橋5-33-7,139.75412,35.66259
ファミリ-マ-ト新橋五丁目店,東京都港区新橋5丁目14-10 新橋スクエアビル,139.75632,35.66219
セブンイレブン新橋5丁目店,東京都港区新橋5丁目34－3,139.7536,35.66285
ロ-ソン新橋六丁目店,東京都港区新橋6-20-1,139.75467,35.66093
サンクス御成門店,東京都港区新橋6丁目17-17,139.75211,35.66144
ファミリ-マ-ト新橋駅西店,東京都港区新橋二丁目15-9 エスプラザ弥生ビル2,139.75671,35.6664
新鮮組桜田ビル店,東京都港区西新橋1-1-3,139.75284,35.67017
ロ-ソン西新橋二丁目店,東京都港区西新橋2-16-1,139.75052,35.66645
ナチュラルロ-ソン西新橋烏森通店,東京都港区西新橋2-6-2,139.75334,35.66684
セブンイレブン西新橋2丁目店,東京都港区西新橋2－8－11,139.75343,35.66622
エ-エムピ-エム御成門日比谷通り店,東京都港区西新橋3-23-5,139.75127,35.66175
（株）クリエィティブ・アドバンス,東京都港区西新橋3-24-6,139.75127,35.66126
ファミリ-マ-ト西麻布一丁目店,東京都港区西麻布1-8-10,139.72533,35.66073
サンクス西麻布店,東京都港区西麻布3-21-20,139.72504,35.65955
エ-エムピ-エム西麻布3丁目店,東京都港区西麻布3－24,139.72403,35.65917
エ-エムピ-エム六本木テレ朝前店,東京都港区西麻布3-2-9,139.72726,35.65893
セブンイレブン西麻布4丁目店,東京都港区西麻布4－15－2,139.72096,35.65863
サンクス港日赤通り店,東京都港区西麻布4丁目22-11,139.71875,35.65726
セブンイレブン赤坂1丁目店,東京都港区赤坂1－11－30,139.74141,35.66884
生活彩家東京全日空ホテル店,東京都港区赤坂1-12-33,139.74068,35.66795
ミニストップ赤坂一丁目店,東京都港区赤坂1-3-6,139.7446,35.67041
新鮮組溜池店,東京都港区赤坂1-5-14,139.74316,35.67073
ファミリ-マ-ト赤坂一丁目店,東京都港区赤坂1丁目7-19,139.74159,35.66923
エ-エムピ-エム国際新赤坂ビル店,東京都港区赤坂2-14-27,139.73709,35.67204
デイリ-ヤマザキ赤坂2丁目店,東京都港区赤坂2-14-9,139.73709,35.67204
エ-エムピ-エム赤坂ツインタワ-店,東京都港区赤坂2-17-22,139.73843,35.67021
ポプラ赤坂２丁目店,東京都港区赤坂2-17-54,139.73843,35.67021
新鮮組赤坂２丁目店,東京都港区赤坂2-2-19,139.74234,35.67166
エ-エムピ-エム国際赤坂ビル店,東京都港区赤坂2-4-5,139.74071,35.67188
ファミリ-マ-ト溜池山王店,東京都港区赤坂2-9-11B2,139.74097,35.67112
セブンイレブン赤坂2丁目店,東京都港区赤坂2丁目13－1,139.73871,35.6721
ファミリ-マ-ト赤坂三丁目店,東京都港区赤坂3-13-14,139.7375,35.67313
セブンイレブン赤坂一ツ木通り店,東京都港区赤坂3-14-9,139.73727,35.67378
ロ-ソン赤坂一ツ木通店,東京都港区赤坂3-19-8,139.7363,35.67572
ポプラ赤坂店,東京都港区赤坂3-21-15,139.73581,35.67685
サンクスエスプラナ-ド赤坂店,東京都港区赤坂3-7-13,139.73772,35.67492
デイリ-ヤマザキ赤坂三丁目店,東京都港区赤坂3-9-1,139.73631,35.67704
デイリ-ヤマザキ赤坂見附店,東京都港区赤坂3-9-10,139.73631,35.67704
エ-エムピ-エム赤坂4丁目店,東京都港区赤坂4－1－2,139.73482,35.67629
ジャストスポット赤坂４丁目店,東京都港区赤坂4-1-29,139.73482,35.67629
セブンイレブン赤坂ガ－デンシティ店,東京都港区赤坂4－15－1,139.73143,35.67393
セブンイレブン赤坂4丁目店,東京都港区赤坂4丁目9－9,139.73296,35.67509
エ-エムピ-エム赤坂パ-クビル店,東京都港区赤坂5-2-20,139.73328,35.67246
セブンイレブン赤坂Bizタワ－店,東京都港区赤坂5－3－1,139.73523,35.67238
セブンイレブンTBS放送センタ－店,東京都港区赤坂5－3－6,139.73523,35.67238
ロ-ソン赤坂６丁目店,東京都港区赤坂6-13-16,139.73413,35.66989
セブンイレブン赤坂6丁目南店,東京都港区赤坂6－14－15,139.73334,35.66953
エ-エムピ-エム赤坂6丁目店,東京都港区赤坂6－3－1,139.73569,35.67097
エ-エムピ-エム赤坂パインクレスト店,東京都港区赤坂7－5－27,139.73053,35.67178
サンクス赤坂9丁目店,東京都港区赤坂9-1-7赤坂レジテンシャルホテル1階,139.73225,35.66824
ロ-ソン赤坂九丁目店,東京都港区赤坂9-5-27,139.7291,35.66771
ファミリ-マ-ト赤坂九丁目店,東京都港区赤坂9-6-26,139.72853,35.66701
ファミリ-マ-トミッドタウン店,東京都港区赤坂9-7-1,139.73077,35.66574
セブンイレブン東京ミッドタウン店,東京都港区赤坂9-7-2,139.73077,35.66574
サンクスお台場東京ビ-チ店,東京都港区台場1-6-1 デックス東京ビ-チ,139.77589,35.62902
ファミリ-マ-トお台場海浜公園店,東京都港区台場1-5-7-101,139.77795,35.63017
サンクスアクアシティお台場店,東京都港区台場1丁目7,139.77353,35.6278
エ-エムピ-エムトレ-ドピアお台場店,東京都港区台場2－3－1,139.77711,35.62852
ロ-ソンフジテレビ店,東京都港区台場2-4-8,139.77417,35.62693
生活彩家汐留ツインパ-クス店,東京都港区東新橋1-10-3,139.75983,35.66045
エ-エムピ-エム東新橋1丁目店,東京都港区東新橋1－1－2,139.76031,35.66589
サンクス新橋ゆりかもめ店,東京都港区東新橋1-1-8地先,139.76031,35.66589
ロ-ソン東新橋一丁目店,東京都港区東新橋1-3-1,139.75894,35.66417
エ-ピ-エンタ汐留店,東京都港区東新橋1-5-2,139.76141,35.66572
エ-エムピ-エム汐留シティセンタ-店,東京都港区東新橋1－5－2B208,139.76141,35.66572
エ-エムピ-エム汐留タワ-店,東京都港区東新橋1－6－3,139.75992,35.66417
ファミリ-マ-ト汐留メディアタワ-店,東京都港区東新橋1-7-1 汐留メディアタワ-Ｂ2Ｆ,139.75851,35.66015
セブンイレブンカレッタ汐留店,東京都港区東新橋1-8-2,139.76186,35.66375
ファミリ-マ-トペディ汐留店,東京都港区東新橋1-9-1,139.7618,35.66362
ナチュラルロ-ソンコモディオ汐留店,東京都港区東新橋2-14-1,139.75739,35.66003
ロ-ソン東麻布店,東京都港区東麻布1-17-13,139.74284,35.65623
ファミリ-マ-ト東麻布一丁目店,東京都港区東麻布1-28-13,139.7438,35.65534
エ-エムピ-エム東麻布1丁目店,東京都港区東麻布1－4－3,139.74342,35.65793
生活彩家麻布店,東京都港区東麻布2-23-14,139.73961,35.65697
ナチュラルロ-ソン東麻布三丁目店,東京都港区東麻布3-7-13,139.73843,35.65635
ファミリ-マ-ト南青山一丁目店,東京都港区南青山1-10-3,139.72633,35.6708
エ-エムピ-エム青山ツインビル店,東京都港区南青山1－1－1,139.72504,35.67254
エ-エムピ-エム乃木坂駅前店,東京都港区南青山1-15-16,139.72647,35.66909
エ-エムピ-エム青山外苑東通り店,東京都港区南青山1-2-19,139.7252,35.67215
エ-エムピ-エム外苑青山通り店,東京都港区南青山2-12-12,139.72035,35.6711
ロ-ソン南青山二丁目店,東京都港区南青山2-14-17,139.7207,35.67025
生活彩家青山２丁目店,東京都港区南青山2-2-15,139.724,35.67144
ファミリ-マ-ト南青山二丁目店,東京都港区南青山2-22-16,139.71953,35.6707
エ-エムピ-エム南青山2丁目店,東京都港区南青山2－27－19,139.71716,35.66893
エ-エムピ-エム外苑南青山2丁目店,東京都港区南青山2－27－28,139.71716,35.66893
ポプラ青山店,東京都港区南青山3-8-40,139.71526,35.66674
ミニストップ南青山４丁目店,東京都港区南青山4-26-16,139.71814,35.66225
ポプラアンティック通り店,東京都港区南青山5-4-27,139.71429,35.66233
サンクス南青山店,東京都港区南青山5丁目11-15-102,139.71202,35.66185
ミニストップ南青山６丁目店,東京都港区南青山6-6-22,139.7178,35.66014
サンクス港高樹町店,東京都港区南青山7-10-3,139.71837,35.65896
ロ-ソン南青山七丁目店,東京都港区南青山7-11-5,139.71848,35.65855
ロ-ソン古川橋店,東京都港区南麻布2-10-9,139.73561,35.64799
セブンイレブン南麻布店,東京都港区南麻布2-8-10,139.73576,35.64858
サンクス港南麻布店,東京都港区南麻布2丁目2-13,139.73543,35.6498
エ-エムピ-エム南麻布5丁目店,東京都港区南麻布5－2－35,139.72392,35.65489
サンクス広尾駅前店,東京都港区南麻布5丁目15番地20,139.72273,35.65114
サンクス港区白金プラザ店,東京都港区白金1-17-1,139.73355,35.6451
ロ-ソン白金高輪駅前店,東京都港区白金1-27-6,139.7341,35.64393
セブンイレブン港区白金1丁目店,東京都港区白金1－7－1,139.73175,35.64634
サンクス港白金店,東京都港区白金1丁目1-12,139.73251,35.64703
サンクス白金三光店,東京都港区白金3丁目17-20,139.72774,35.64427
ミニストップ白金６丁目店,東京都港区白金6-6-2,139.72577,35.64423
ミニストップ白金台２丁目店,東京都港区白金台2-10-2,139.73076,35.63372
デイリ-ヤマザキ白金台2丁目店,東京都港区白金台2-25-8,139.72998,35.63264
コア白金台店,東京都港区白金台2-26-8,139.72981,35.63189
ロ-ソン白金台二丁目店,東京都港区白金台2-6-10,139.73038,35.63566
エ-エムピ-エム白金台3丁目店,東京都港区白金台3－19－1,139.72011,35.63486
セブンイレブン白金台駅前店,東京都港区白金台3-2-3,139.72668,35.63729
ロ-ソン白金台四丁目店,東京都港区白金台4-19-11,139.72298,35.63945
ファミリ-マ-ト白金台三丁目店,東京都港区白金台三丁目16-11,139.72385,35.63567
セブンイレブン浜松町1丁目店,東京都港区浜松町1－10－11,139.75543,35.65923
サンクス浜松町1丁目店,東京都港区浜松町1-13-2,139.75687,35.65865
ファミリ-マ-ト浜松町一丁目店,東京都港区浜松町1-27-17 三和ビル,139.75513,35.65711
ロ-ソン文化放送メディアプラス店,東京都港区浜松町1-31,139.75716,35.65688
エ-エムピ-エム浜松町世界貿易センタ-ビル店,東京都港区浜松町2-4-1,139.75648,35.65551
生活彩家貿易センタ-ビル店,東京都港区浜松町2-4-1,139.75648,35.65551
エ-エムピ-エムビッグウイング東京モノレ-ル店,東京都港区浜松町2－4－12,139.75648,35.65551
エ-エムピ-エム浜松町駅前店,東京都港区浜松町2-6-2,139.75575,35.65434
エ-エムピ-エム青山ビル店,東京都港区北青山1-2-3,139.72334,35.6731
ファミリ-マ-ト北青山二丁目店,東京都港区北青山2-12-13,139.71564,35.67053
ナチュラルロ-ソン北青山二丁目店,東京都港区北青山2-12-5,139.71564,35.67053
ファミリ-マ-ト伊藤忠ビル店,東京都港区北青山2-5-1 伊藤忠本社ビル,139.7189,35.67116
エ-エムピ-エム外苑前店,東京都港区北青山2-7-26,139.71753,35.67101
エ-エムピ-エム北青山3丁目店,東京都港区北青山3－5－5,139.71233,35.66545
ファミリ-マ-ト一の橋店,東京都港区麻布十番1-2-10,139.73651,35.65679
ミニストップ麻布十番店,東京都港区麻布十番2-16-1,139.73546,35.6541
ポプラ麻布十番店,東京都港区麻布十番2-21-13,139.73645,35.65419
セブンイレブン港区麻布十番2丁目店,東京都港区麻布十番2－3－10,139.73523,35.65558
サンクス麻布十番商店街通り店,東京都港区麻布十番2丁目2-4,139.73566,35.65543
エ-エムピ-エム麻布十番店,東京都港区麻布十番3-10-12,139.73463,35.6528
セブンイレブン港区麻布十番3丁目店,東京都港区麻布十番3－5－7,139.7355,35.65321
サンクス麻布十番店,東京都港区麻布十番3丁目1-4-101,139.73643,35.65341
サンクス港一の橋店,東京都港区麻布十番4丁目3-1,139.73724,35.6544
セブンイレブン港区飯倉店,東京都港区麻布台1-9-8,139.742,35.66005
エ-エムピ-エム麻布台3丁目店,東京都港区麻布台3－4－10,139.73866,35.66021
エ-エムピ-エム六本木ア-ク八木ヒルズ店,東京都港区六本木1-8-7,139.73941,35.66329
セブンイレブン六本木ティ－キュ－ブ店,東京都港区六本木3－1－1,139.73714,35.66542
エ-エムピ-エム六本木3丁目店,東京都港区六本木3－11－6,139.73305,35.66317
ファミリ-マ-ト六本木東店,東京都港区六本木3-14-9,139.73451,35.66246
セブンイレブン六本木3丁目店,東京都港区六本木3-4－31,139.73643,35.66438
ファミリ-マ-ト六本木三丁目店,東京都港区六本木3-3-7,139.73825,35.6628
ファミリ-マ-ト六本木駅前店,東京都港区六本木3丁目11-10 ココ六本木ビル,139.73305,35.66317
エ-エムピ-エム六本木4丁目店,東京都港区六本木4－11－11,139.73183,35.66427
ミニストッフ゜六本木４丁目店,東京都港区六本木4-11-13,139.73183,35.66427
デイリ-ヤマザキ六本木交差点店,東京都港区六本木4-9-5,139.73242,35.66366
ポプラ六本木店,東京都港区六本木5-1-6,139.73285,35.66269
デイリ-ヤマザキ六本木5丁目店,東京都港区六本木5-16-4,139.7357,35.66103
ファミリ-マ-ト六本木ヒルズ店,東京都港区六本木6-2-31 六本木ヒルズノ-スタワ-Ｂ1階,139.73013,35.66198
エ-エムピ-エム六本木6丁目店,東京都港区六本木6－8－10,139.73212,35.66102
セブンイレブン六本木7丁目店,東京都港区六本木7－10－3,139.72841,35.66373
ファミリ-マ-ト六本木七丁目店,東京都港区六本木7-13-2,139.73065,35.6642
デイリ-ヤマザキ六本木店,東京都港区六本木7-14-5,139.73126,35.66363
エ-エムピ-エム六本木7丁目店,東京都港区六本木7－15－17,139.73035,35.66291
ミニストップ荒川１丁目店,東京都荒川区荒川1-18-14,139.78766,35.73571
ミニストップ荒川２丁目店,東京都荒川区荒川2-21-3,139.782,35.73757
サンクス荒川3丁目店,東京都荒川区荒川3-23-11,139.78217,35.73412
セブンイレブン荒川店,東京都荒川区荒川3-52-4,139.77943,35.73586
セブンイレブン荒川新三河島駅前店,東京都荒川区荒川5－18－4,139.77373,35.7379
セブンイレブン荒川5丁目店,東京都荒川区荒川5-11-13,139.77753,35.73883
スリ-エフ荒川5丁目店,東京都荒川区荒川5-51-7,139.77434,35.74022
ファミリ-マ-ト町屋店,東京都荒川区荒川6-1-5,139.77879,35.74046
サンクス荒川6丁目店,東京都荒川区荒川6-40-5,139.77678,35.74334
エ-エムピ-エム西日暮里1丁目店,東京都荒川区西日暮里1－1－1,139.77589,35.73684
ミニストップ西日暮里店,東京都荒川区西日暮里1-30-9,139.77493,35.73539
ファミリ-マ-ト西日暮里一丁目店,東京都荒川区西日暮里1-60-8,139.77187,35.73477
セブンイレブン荒川西日暮里1丁目店,東京都荒川区西日暮里1丁目2－6,139.77672,35.73595
コミュニティ・ストア西日暮里うえむら店,東京都荒川区西日暮里2-16-5,139.77263,35.7295
サンクス日暮里店,東京都荒川区西日暮里2-17-5,139.7722,35.729
セブンイレブン日暮里駅北店,東京都荒川区西日暮里2－21－6,139.77016,35.72948
エ-エムピ-エム西日暮里2丁目,東京都荒川区西日暮里2－29－6,139.77196,35.73003
セブンイレブン西日暮里店,東京都荒川区西日暮里3-23-10,139.76439,35.7309
ファミリ-マ-ト西日暮里四丁目店,東京都荒川区西日暮里4-21-3,139.76474,35.73175
セブンイレブン荒川西日暮里5丁目店,東京都荒川区西日暮里5丁目14番1,139.76804,35.73241
セブンイレブン西日暮里六丁目店,東京都荒川区西日暮里6-51-6,139.76865,35.73684
ファミリ-マ-ト新三河島駅前店,東京都荒川区西日暮里6-6-11,139.77222,35.73758
ファミリ-マ-ト西尾久二丁目店,東京都荒川区西尾久2-14-11,139.76312,35.74727
コミュニティ・ストア西尾久みずたに店,東京都荒川区西尾久2-38-11,139.76192,35.74999
セブンイレブン荒川宮の前店,東京都荒川区西尾久2-4-18,139.76479,35.74986
エ-エムピ-エム西尾久小台駅前店,東京都荒川区西尾久3-21-12,139.76154,35.75084
セブンイレブン荒川西尾久3丁目店,東京都荒川区西尾久3－22－14,139.76154,35.75135
ミニストップ西尾久店,東京都荒川区西尾久7-25-1,139.75525,35.74784
スリ-エフ荒川西尾久店,東京都荒川区西尾久7-28-1,139.75545,35.74973
セブンイレブン荒川西尾久7丁目店,東京都荒川区西尾久7－4－9,139.75771,35.74965
ファミリ-マ-ト兼升西尾久店,東京都荒川区西尾久7-5-8,139.75769,35.75031
セブンイレブン荒川西尾久8丁目店,東京都荒川区西尾久8丁目27－6,139.75421,35.75263
デイリ-ヤマザキ町屋1丁目店,東京都荒川区町屋1-5-4,139.78214,35.74481
ファミリ-マ-ト町屋一丁目店,東京都荒川区町屋1-9-10,139.78331,35.74642
ロ-ソン荒川町屋二丁目店,東京都荒川区町屋2-16-15,139.77812,35.74387
サンクス町屋店,東京都荒川区町屋2-4-15,139.78178,35.74496
セブンイレブン荒川町屋店,東京都荒川区町屋2-8-5,139.77991,35.74347
ＵＳ．ＭＡＲＴ,東京都荒川区町屋3-2-1,139.7821,35.74596
セブンイレブン荒川尾竹橋店,東京都荒川区町屋3-22-1,139.78421,35.74884
ミニストップ町屋４丁目店,東京都荒川区町屋4-35-8,139.77832,35.74942
エ-エムピ-エム町屋5丁目店,東京都荒川区町屋5－5－5,139.77898,35.74998
ファミリ-マ-ト荒川尾竹橋店,東京都荒川区町屋7-1-10,139.78568,35.74995
ファミリ-マ-ト町屋八丁目店,東京都荒川区町屋8丁目13-10,139.78683,35.74868
チバヤ食品工業（株）,東京都荒川区東日暮里1-19-1,139.7894,35.72891
セブンイレブン東日暮里店,東京都荒川区東日暮里3-33-6,139.7796,35.7309
ポプラ東日暮里３丁目店,東京都荒川区東日暮里3-41-9,139.77904,35.7323
ロ-ソン東日暮里三丁目店,東京都荒川区東日暮里3-9-14,139.78262,35.72863
セブンイレブン東日暮里4丁目店,東京都荒川区東日暮里4-36-17,139.77969,35.7253
エ-エムピ-エム日暮里駅前店,東京都荒川区東日暮里5-52-2,139.77328,35.72679
ファミリ-マ-ト東日暮里六丁目店,東京都荒川区東日暮里6-18-7,139.77682,35.72912
エ-エムピ-エム東日暮里6丁目店,東京都荒川区東日暮里6－38－11,139.77499,35.73125
セブンイレブン東尾久店,東京都荒川区東尾久2-44-11,139.76991,35.74361
（株）和泉屋,東京都荒川区東尾久3-6-2,139.7733,35.74473
エ-エムピ-エム荒川東尾久店,東京都荒川区東尾久3-8-14,139.77304,35.74583
セブンイレブン東尾久4丁目店,東京都荒川区東尾久4－43－4,139.76526,35.74368
（有）フジ商店,東京都荒川区東尾久5-20-12,139.76791,35.74651
ショップ＆ライフ山岡尾久橋店,東京都荒川区東尾久5-3-12,139.76898,35.74584
ヒロマルチェ-ンスリ-エイト熊野前店,東京都荒川区東尾久5-6-10,139.76895,35.74706
セブンイレブン熊の前店,東京都荒川区東尾久8-31-2,139.76842,35.74998
サンクス南千住1丁目店,東京都荒川区南千住1-15-4,139.79219,35.73201
コミュニティ・ストアさかぐち店,東京都荒川区南千住1-43-1,139.78903,35.73548
ロ-ソン南千住三丁目店,東京都荒川区南千住3-12-12,139.80222,35.72926
デ-リ-ヤマザキ南千住3丁目店,東京都荒川区南千住3-24-1,139.80785,35.73185
サンクス南千住4丁目店,東京都荒川区南千住4-2-2,139.79956,35.73347
セブンイレブン荒川南千住4丁目店,東京都荒川区南千住4－7－1,139.80176,35.73583
エ-エムピ-エムリバ-ハ-プタワ-南千住店,東京都荒川区南千住4-9-1,139.80383,35.73639
セブンイレブン南千住5丁目店,東京都荒川区南千住5－36－13,139.79678,35.73283
セブンイレブン南千住6丁目店,東京都荒川区南千住6－24－13,139.78937,35.73612
おおいせや,東京都荒川区南千住7-18-10,139.79758,35.73768
セブンイレブン南千住7丁目店,東京都荒川区南千住7-12-2,139.79732,35.73617
ポプラべるぽ-と汐入店,東京都荒川区南千住8-4-5,139.80692,35.73761
サンクス恋ヶ窪店,東京都国分寺市戸倉1-1-4,139.46373,35.71145
セブンイレブン国分寺市役所前店,東京都国分寺市戸倉1-5-19,139.46254,35.7101
セブンイレブン国分寺光1丁目店,東京都国分寺市光町1-39-19,139.44725,35.70159
スリ-エフ国分寺光町店,東京都国分寺市光町1-45-12,139.44498,35.70188
ミニストップ国分寺高木町店,東京都国分寺市高木町3-1-1,139.44241,35.71444
セブンイレブン国分寺西元町店,東京都国分寺市西元町3-8-7,139.46915,35.69039
サ-クルＫ国分寺西元町店,東京都国分寺市西元町二丁目9番25号,139.46796,35.69235
スリ-エフ国分寺西町店,東京都国分寺市西町3-21-3,139.43422,35.71156
サ-クルＫ国分寺西町店,東京都国分寺市西町3丁目16番地20,139.43521,35.70925
セブンイレブン西恋ケ窪2丁目店,東京都国分寺市西恋ヶ窪2－15－2,139.46616,35.70151
セブンイレブン西国分寺駅前店,東京都国分寺市泉町2-9-1,139.46806,35.6993
ファミリ-マ-ト海田西国分寺店,東京都国分寺市泉町3-6-3,139.46526,35.69543
ファミリ-マ-ト柚木国分寺南町店,東京都国分寺市東元町1-13-10,139.48747,35.69773
セブンイレブン国分寺街道店,東京都国分寺市東元町4-16-21,139.48058,35.69283
セブンイレブン国分寺東戸倉店,東京都国分寺市東戸倉2-1-2,139.46645,35.71394
セブンイレブン東恋ケ窪3丁目店,東京都国分寺市東恋ヶ窪3－3－8,139.47427,35.70558
ファミリ-マ-ト国分寺府中街道店,東京都国分寺市東恋ケ窪4丁目24-5,139.46851,35.71072
ロ-ソン東恋ケ窪５丁目店,東京都国分寺市東恋ケ窪5-14,139.46826,35.71067
セブンイレブン国分寺南町1丁目店,東京都国分寺市南町1－14-2,139.48604,35.69988
ミニストップ国分寺南町２丁目店,東京都国分寺市南町2-17-1,139.48331,35.69971
ファミリ-マ-ト国分寺南町三丁目店,東京都国分寺市南町3-15-6,139.47986,35.69873
ファミリ-マ-ト国分寺南口駅前店,東京都国分寺市南町3-17-2,139.4808,35.69935
ミニストップ国分寺南町３丁目店,東京都国分寺市南町3-23-3,139.47839,35.69825
Ｙショップ日吉店,東京都国分寺市日吉町3-31-15,139.45508,35.70153
セブンイレブン国分寺日吉町4丁目店,東京都国分寺市日吉町4丁目17番19,139.4612,35.70403
セブンイレブン国分寺富士本2丁目店,東京都国分寺市富士本2－23－3,139.44676,35.70805
ロ-ソン国分寺並木町１丁目店,東京都国分寺市並木町1-9-2,139.4592,35.71645
サ-クルＫ国分寺北町店,東京都国分寺市北町2丁目24番地1,139.45186,35.71715
セブンイレブン国分寺本多2丁目店,東京都国分寺市本多2－1－15,139.48137,35.70481
ファミリ-マ-ト金子国分寺本多店,東京都国分寺市本多3-3-5,139.47862,35.70814
ロ-ソン国分寺本町２丁目店,東京都国分寺市本町2-12-6,139.48122,35.70222
セブンイレブン国分寺本町2丁目店,東京都国分寺市本町2－13－1,139.48163,35.70214
ミニストップ国分寺駅北口店,東京都国分寺市本町2-9-2,139.48224,35.70129
ファミリ-マ-ト国分寺本町三丁目店,東京都国分寺市本町3-8-12,139.4798,35.7024
サンクス国分寺本町3丁目店,東京都国分寺市本町3丁目6-2,139.47958,35.70161
ファミリ-マ-ト西武国分寺駅前店,東京都国分寺市本町4-1-18,139.47878,35.70047
ファミリ-マ-ト国立西二丁目店,東京都国立市西2-24-18,139.43507,35.69267
セブンイレブン国立西店,東京都国立市西3-2-11,139.43723,35.68995
ファミリ-マ-ト府中第二インタ-店,東京都国立市泉4丁目15-6,139.43393,35.67609
サ-クルＫ国立泉店,東京都国立市泉4丁目18番地5,139.42934,35.67715
ファミリ-マ-ト国立インタ-店,東京都国立市谷保620-1,139.44392,35.67695
セブンイレブン国立谷保南店,東京都国立市谷保6299-1,139.43034,35.68013
ロ-ソン国立インタ-店,東京都国立市谷保907-1,139.44505,35.67554
セブンイレブン国立中店,東京都国立市中1-14-9,139.44238,35.697
コミュニティ・ストアうちだ店,東京都国立市中1-2-39,139.44023,35.69884
ファミリ-マ-ト国立中一丁目店,東京都国立市中1-9-77,139.44563,35.69778
セブンイレブン国立東店,東京都国立市東1-17-14,139.44859,35.69646
ミニストップ国立東店,東京都国立市東1-7-36,139.44824,35.69794
近江屋酒店,東京都国立市東2-6-2,139.45139,35.69533
スリ-エフ国立東3丁目店,東京都国立市東3-7-17,139.45364,35.69404
ファミリ-マ-ト国立東四丁目店,東京都国立市東4-5-31,139.45274,35.69047
ファミリ-マ-ト海田大学通り店,東京都国立市富士見台1-1-11,139.44743,35.68696
セブンイレブン国立谷保駅北口店,東京都国立市富士見台1-17-9,139.44792,35.68125
セブンイレブン国立富士見台2丁目店,東京都国立市富士見台2－17－7,139.44574,35.68217
ファミリ-マ-ト富士見台二丁目店,東京都国立市富士見台2-41-3,139.44154,35.6874
イセヒロフジフアミリ-シヨツプ,東京都国立市富士見台4-11-1,139.43135,35.68546
ロ-ソン矢川店,東京都国立市富士見台4-2-10,139.43335,35.68795
セブンイレブン国立富士見台4丁目店,東京都国立市富士見台4－8－7,139.43199,35.68629
エ-エムピ-エム国立駅北口店,東京都国立市北1-7-1,139.44646,35.70022
サンクス国立北1丁目店,東京都国立市北1丁目4-7,139.4472,35.7003
ダイヤメイトニシカワ,東京都国立市北2-11-11,139.43982,35.69969
セブンイレブン国立北2丁目店,東京都国立市北2－6－8,139.44041,35.70031
サンクス国立北店,東京都国立市北3丁目29-7,139.42888,35.70205
サンクス狛江岩戸南店,東京都狛江市岩戸南4-22-8,139.59259,35.6254
サンクス喜多見店,東京都狛江市岩戸北2-20-4,139.58585,35.63639
Ｆマ-トマサキ,東京都狛江市岩戸北4-16-8,139.58887,35.63437
ミニストップ狛江岩戸北店,東京都狛江市岩戸北4-17-9,139.58936,35.63395
ファミリ-マ-ト駒井町一丁目店,東京都狛江市駒井町1-9-6,139.58594,35.62692
ミニストップ和泉多摩川店,東京都狛江市元和泉1-24-1,139.57474,35.62893
セブンイレブン狛江駅前店,東京都狛江市元和泉1－8－8,139.57626,35.63182
ロ-ソン中和泉一丁目店,東京都狛江市中和泉1-18-17,139.57385,35.63508
ロ-ソン狛江市役所前店,東京都狛江市中和泉1-2-6,139.57753,35.63453
ファミリ-マ-ト中和泉一丁目店,東京都狛江市中和泉1-8-3,139.57594,35.63618
セブンイレブン狛江中和泉3丁目店,東京都狛江市中和泉3-1-24,139.57281,35.63556
ファミリ-マ-ト狛江慈恵医大前店,東京都狛江市中和泉5-31-20,139.56622,35.64362
ファミリ-マ-ト狛江慈恵医大前店,東京都狛江市中和泉５－３１－２０,139.56622,35.64362
ファミリ-マ-ト東野川二丁目店,東京都狛江市東野川2-22-1,139.57773,35.64494
マインズショップ狛江店,東京都狛江市東和泉1-2-19,139.57997,35.63319
ファミリ-マ-ト狛江東和泉店,東京都狛江市東和泉1-6-7,139.58105,35.63123
セブンイレブン狛江東和泉3丁目店,東京都狛江市東和泉3－12－14,139.57356,35.62635
ファミリ-マ-ト和泉多摩川駅前店,東京都狛江市東和泉4-3-4,139.57306,35.62743
ミニストップ狛江和泉本町店,東京都狛江市和泉本町1-8-6,139.57938,35.63667
セブンイレブン三鷹台店,東京都三鷹市井の頭1-30-16,139.58827,35.69146
サンクス三鷹台駅北店,東京都三鷹市井の頭1丁目32-4,139.58948,35.69209
セブンイレブン井の頭公園駅前店,東京都三鷹市井の頭3-12-11,139.58264,35.69708
ファミリ-マ-ト井の頭四丁目店,東京都三鷹市井の頭4-21-3,139.57599,35.6974
ロ-ソン井の頭５丁目店,東京都三鷹市井の頭5-7-38,139.57721,35.6953
セブンイレブン三鷹富士見通り店,東京都三鷹市井口1－16－2,139.54793,35.69531
サンクス三鷹井口店,東京都三鷹市井口1丁目9番20号,139.54971,35.69118
ロ-ソン井口店,東京都三鷹市井口3-1-7,139.54507,35.69567
セブンイレブン三鷹井口3丁目店,東京都三鷹市井口3-15-10,139.54182,35.69441
ファミリ-マ-ト三鷹かえで通り店,東京都三鷹市井口3-6-16,139.54553,35.69107
デイリ-ヤマザキ三鷹井口4丁目店,東京都三鷹市井口4-2-25,139.53706,35.69413
ファミリ-マ-ト下連雀店,東京都三鷹市下連雀1-8-15,139.56984,35.69254
セブンイレブン下連雀店,東京都三鷹市下連雀2-27-8,139.56621,35.69828
セブンイレブン三鷹駅前店,東京都三鷹市下連雀3-24-12,139.56201,35.702
ファミリ-マ-ト三鷹駅前店,東京都三鷹市下連雀3-27-1,139.56126,35.7012
エ-エムピ-エム三鷹駅南店,東京都三鷹市下連雀3-27-11,139.56126,35.7012
ファミリ-マ-ト三鷹南店,東京都三鷹市下連雀3-41-1,139.55943,35.69874
ファミリ-マ-ト紅林下連雀店,東京都三鷹市下連雀3-9-8,139.56367,35.69855
サンクス三鷹中央通り店,東京都三鷹市下連雀3丁目30-12,139.56143,35.69793
ロ-ソン三鷹仲通り店,東京都三鷹市下連雀4-1-16,139.56519,35.69553
セブンイレブン三鷹駅南通り店,東京都三鷹市下連雀4-17-3-101,139.56094,35.69372
セブンイレブン南浦店,東京都三鷹市下連雀6-15-27,139.56503,35.68979
ファミリ-マ-ト山中通り店,東京都三鷹市下連雀6-6-38,139.56752,35.68929
セブンイレブン三鷹下連雀6丁目店,東京都三鷹市下連雀6-5-1,139.56813,35.69006
セブンイレブン三鷹下連雀8丁目店,東京都三鷹市下連雀8－4－17,139.56718,35.6846
セブンイレブン三鷹下連雀9丁目店,東京都三鷹市下連雀9－11－14,139.55962,35.68409
デ-リ-ヤマザキ下連雀店,東京都三鷹市下連雀9-6-13,139.56029,35.68687
セブンイレブン三鷹上連雀1丁目店,東京都三鷹市上連雀1-11－47,139.55402,35.70511
宮田酒店,東京都三鷹市上連雀1-18-3,139.54999,35.70656
セブンイレブン三鷹駅南口店,東京都三鷹市上連雀2-4-3,139.55878,35.69944
セブンイレブン三鷹新道北通り店,東京都三鷹市上連雀3-3-12,139.55502,35.69959
セブンイレブン三鷹上連雀6丁目店,東京都三鷹市上連雀6－32－36,139.55736,35.69293
セブンイレブン三鷹新川1丁目店,東京都三鷹市新川1丁目11－12,139.57581,35.66819
ファミリ-マ-ト新川吉祥寺通り店,東京都三鷹市新川2-4-2,139.57701,35.67661
ファミリ-マ-ト三鷹新川店,東京都三鷹市新川4-2-2,139.57491,35.67194
クロック笹屋,東京都三鷹市新川4-9-4,139.57117,35.67186
サ-クルＫ三鷹新川団地店,東京都三鷹市新川4丁目11番15号,139.57185,35.673
セブンイレブン三鷹消研前店,東京都三鷹市新川6-13-5,139.56729,35.67546
セブンイレブン三鷹新川6丁目店,東京都三鷹市新川6－3－14,139.56898,35.683
ファミリ-マ-ト三鷹杏林前店,東京都三鷹市新川6-9-6,139.5676,35.67709
セブンイレブン三鷹天文台通り店,東京都三鷹市深大寺1-14-30,139.53836,35.69065
（株）橋本商店,東京都三鷹市深大寺2-23-2,139.54207,35.68969
スリ-エフ深大寺店,東京都三鷹市深大寺2-35-51,139.54048,35.68982
サンクス三鷹西野店,東京都三鷹市深大寺3-8-7 グランドメゾン大野1階,139.53729,35.68965
セブンイレブン三鷹大沢4丁目店,東京都三鷹市大沢4丁目10番16号,139.5387,35.66856
セブンイレブン三鷹大沢6丁目店,東京都三鷹市大沢6-9-11,139.52962,35.67925
セブンイレブン三鷹南原店,東京都三鷹市北野2-4-9,139.58376,35.68084
セブンイレブン三鷹北野店,東京都三鷹市北野3-5-5,139.58344,35.67287
オダキュ-ＯＸ三鷹牟礼店,東京都三鷹市牟礼2-15-3,139.58424,35.68293
セブンイレブン三鷹牟礼4丁目店,東京都三鷹市牟礼4－9－11,139.57507,35.69006
セブンイレブン三鷹牟礼5丁目店,東京都三鷹市牟礼5-14-22,139.57869,35.68642
サンクス三鷹野崎店,東京都三鷹市野崎1-8-16,139.55458,35.68326
オダキュ-ＯＸ三鷹野崎店,東京都三鷹市野崎3-25-13,139.53912,35.68182
ミニストップ三鷹野崎店,東京都三鷹市野崎4-8-33,139.53952,35.68003
サンクス渋谷スペイン坂店,東京都渋谷区宇田川町25-9,139.69899,35.66048
エ-エムピ-エム渋谷宇田川交番前店,東京都渋谷区宇田川町32－15,139.69737,35.66105
ファミリ-マ-ト渋谷公園通り店,東京都渋谷区宇田川町3-3,139.69878,35.66291
サンクス渋谷宇田川店,東京都渋谷区宇田川町33-12,139.69714,35.66078
セブンイレブン渋谷宇田川町北店,東京都渋谷区宇田川町37-11,139.6956,35.66213
コミュニティ・ストア渋谷まつもと店,東京都渋谷区円山町10-15,139.69481,35.65906
セブンイレブン渋谷円山町店,東京都渋谷区円山町1-19,139.69521,35.65945
ロ-ソン円山町店,東京都渋谷区円山町11-8,139.69406,35.65906
エ-エムピ-エム渋谷ランブリングストリ-ト店,東京都渋谷区円山町2-3,139.69525,35.6583
ロ-ソン神泉駅前店,東京都渋谷区円山町23-4,139.69385,35.65668
エ-エムピ-エム渋谷円山町店,東京都渋谷区円山町28-1,139.69461,35.65569
ファミリ-マ-ト渋谷円山町店,東京都渋谷区円山町6-3,139.69485,35.65738
エ-エムピ-エム猿楽町店,東京都渋谷区猿楽町4－5,139.70395,35.65195
サンクス渋谷代官山店,東京都渋谷区猿楽町7-1,139.70274,35.65205
ナチュラルロ-ソン渋谷代官山店,東京都渋谷区猿楽町8-9,139.70337,35.65168
サンクス恵比寿駅東口店,東京都渋谷区恵比寿1-10-5三恵エビスビル1F,139.71056,35.64711
セブンイレブン渋谷恵比寿1丁目店,東京都渋谷区恵比寿1－18－13,139.71408,35.64748
サンクス恵比寿1丁目店,東京都渋谷区恵比寿1-19-23,139.71294,35.64747
エ-エムピ-エム恵比寿1丁目店,東京都渋谷区恵比寿1－24－16,139.71533,35.64688
サ-クルＫ恵比寿一丁目店,東京都渋谷区恵比寿1丁目25番6号,139.71609,35.64689
ロ-ソンストア１００渋谷恵比寿二丁目店,東京都渋谷区恵比寿2-16-1,139.71848,35.64709
エ-エムピ-エム恵比寿2丁目店,東京都渋谷区恵比寿2－29－2,139.72156,35.64515
ロ-ソン天現寺店,東京都渋谷区恵比寿3-39-5,139.72069,35.64376
ファミリ-マ-ト恵比寿ガ-デンプレイス店,東京都渋谷区恵比寿4-20-3 恵比寿ガ-デンプレイスタワ-1階,139.71361,35.64277
エ-エムピ-エム恵比寿4丁目店,東京都渋谷区恵比寿4－9－11,139.71362,35.64587
ロ-ソン恵比寿西一丁目店,東京都渋谷区恵比寿西1-12-12,139.70743,35.6475
セブンイレブン代官山駅東店,東京都渋谷区恵比寿西1-31-15,139.70514,35.64799
エ-エムピ-エム恵比寿西1丁目店,東京都渋谷区恵比寿西1－32－16,139.70482,35.64726
サンクス恵比寿西口店,東京都渋谷区恵比寿西1-4-4 恵比寿S2ビル,139.70804,35.64864
ファミリ-マ-ト恵比寿南一丁目店,東京都渋谷区恵比寿南1-14-15 ラレンヌ恵比寿,139.71005,35.64531
エ-エムピ-エム恵比寿南1丁目店,東京都渋谷区恵比寿南1－4－14,139.7088,35.64635
ロ-ソン恵比寿南一丁目店,東京都渋谷区恵比寿南1-7-8,139.70982,35.64615
サンクス恵比寿南1丁目店,東京都渋谷区恵比寿南1丁目20-11,139.71022,35.64385
新鮮組恵比寿店,東京都渋谷区恵比寿南2-2-2,139.70743,35.64584
ナチュラルロ-ソン恵比寿南３丁目店,東京都渋谷区恵比寿南3-1-26,139.70619,35.64582
セブンイレブン渋谷恵比寿南3丁目店,東京都渋谷区恵比寿南3－2－17,139.70503,35.6459
生活彩家プライムスクェア-店,東京都渋谷区広尾1-1-39,139.71266,35.65019
ミニストップ広尾１丁目店,東京都渋谷区広尾1-14-15,139.71478,35.64814
新鮮組渋谷橋店,東京都渋谷区広尾1-16-3,139.71114,35.64859
ロ-ソン広尾南店,東京都渋谷区広尾1-8-11,139.71591,35.64909
デイリ-ヤマザキ広尾店,東京都渋谷区広尾5-2-24,139.72072,35.65063
ロ-ソン広尾五丁目店,東京都渋谷区広尾5-8-16,139.72124,35.64841
セブンイレブン渋谷広尾5丁目店,東京都渋谷区広尾5－8－18,139.72124,35.64841
ロ-ソン桜丘町南店,東京都渋谷区桜丘町13-12,139.70146,35.65497
エ-エムピ-エム渋谷桜丘店,東京都渋谷区桜丘町15-15,139.70181,35.65614
セブンイレブン渋谷桜丘店,東京都渋谷区桜丘町18-6,139.70097,35.65589
エ-エムピ-エム渋谷駅南店,東京都渋谷区桜丘町2－1,139.70152,35.65705
ファミリ-マ-ト渋谷桜丘町店,東京都渋谷区桜丘町24-1 橋本ビル,139.70049,35.65649
セブンイレブン渋谷セルリアンタワ－店,東京都渋谷区桜丘町26－1,139.69926,35.65623
ロ-ソン渋谷新南口店,東京都渋谷区桜丘町4-14,139.70366,35.6551
ミニストップ渋谷桜丘店,東京都渋谷区桜丘町6-6,139.70309,35.65436
新鮮組桜丘店,東京都渋谷区桜丘町8-10,139.7025,35.65561
ロ-ソン笹塚駅前店,東京都渋谷区笹塚1-28-9,139.66724,35.67275
サンクス渋谷笹塚店,東京都渋谷区笹塚1-55-16,139.66867,35.67431
ポプラ渋谷笹塚店,東京都渋谷区笹塚1-55-16,139.66867,35.67431
セブンイレブン渋谷笹塚駅前店,東京都渋谷区笹塚1-57-22,139.6669,35.67392
ファミリ-マ-ト笹塚二丁目店,東京都渋谷区笹塚2-22-5,139.66399,35.67397
スリ-エフ笹塚3丁目店,東京都渋谷区笹塚3-19-14,139.66701,35.67686
セブンイレブン笹塚店,東京都渋谷区笹塚3-41-1,139.66876,35.67925
エ-エムピ-エム渋谷笹塚3丁目店,東京都渋谷区笹塚3－9－3,139.66925,35.67736
サ-クルＫ渋谷笹塚一丁目店,東京都渋谷区笹塚一丁目9番10号,139.67009,35.67339
セブンイレブン渋谷1丁目店,東京都渋谷区渋谷1-11-6,139.70427,35.66091
エ-エムピ-エム渋谷1丁目店,東京都渋谷区渋谷1－17－1,139.70358,35.66132
エ-エムピ-エム渋谷宮下公園前店,東京都渋谷区渋谷1-24-4,139.70204,35.65992
エ-エムピ-エム渋谷美竹店,東京都渋谷区渋谷1-6-5,139.70541,35.66093
ファミリ-マ-ト宮益坂上店,東京都渋谷区渋谷1-7-5 青山セブンハイツ,139.7061,35.66074
セブンイレブン渋谷区渋谷2の南店,東京都渋谷区渋谷2－12－12,139.70769,35.65907
サンクス渋谷金王坂店,東京都渋谷区渋谷2-14-16,139.70583,35.65948
エ-エムピ-エム渋谷六本木通り店,東京都渋谷区渋谷2-15-1,139.70566,35.65872
エ-エムピ-エム渋谷宮益坂店,東京都渋谷区渋谷2-18-3,139.70421,35.65936
エ-エムピ-エム渋谷駅東口店,東京都渋谷区渋谷2-21-2,139.70351,35.65898
エ-エムピ-エム渋谷2丁目店,東京都渋谷区渋谷2－9－9,139.70731,35.66072
デイリ-ヤマザキ渋谷3丁目店,東京都渋谷区渋谷3-11-11,139.70566,35.65673
ファミリ-マ-ト渋谷明治通り店,東京都渋谷区渋谷3-12-22,139.70625,35.65628
セブンイレブン渋谷区渋谷3丁目店,東京都渋谷区渋谷3－14－2,139.70663,35.65567
エ-エムピ-エム渋谷3丁目店,東京都渋谷区渋谷3－1－8,139.70764,35.65781
エ-エムピ-エム渋谷八幡橋店,東京都渋谷区渋谷3－22－13,139.70418,35.65657
ロ-ソン渋谷三丁目店,東京都渋谷区渋谷3-28-8,139.70407,35.65633
ファミリ-マ-ト渋谷警察東店,東京都渋谷区渋谷3丁目7-1 高山ランド第12ビル,139.7045,35.65772
サンクス渋谷3丁目店,東京都渋谷区渋谷三丁目17番2号,139.70432,35.65666
エ-エムピ-エム初台駅前店,東京都渋谷区初台1-37-11,139.68658,35.67998
セブンイレブン渋谷初台1丁目店,東京都渋谷区初台1－37－5,139.68658,35.67998
ポプラ初台店,東京都渋谷区初台1-47-3,139.68805,35.6819
ロ-ソン初台二丁目店,東京都渋谷区初台2-26-1,139.68765,35.67369
セブンイレブン初台店,東京都渋谷区初台2-6-3,139.6853,35.67472
セブンイレブン上原店,東京都渋谷区上原1-3-4,139.68657,35.66823
ファミリ-マ-ト原宿竹下口店,東京都渋谷区神宮前1-19-11 原宿アッシュＢ1,139.70369,35.67179
セブンイレブン外苑店,東京都渋谷区神宮前1-2-1,139.70621,35.67384
セブンイレブン渋谷原宿店,東京都渋谷区神宮前1-6-12,139.70663,35.67037
ミニストップ神宮前２丁目店,東京都渋谷区神宮前2-12-2,139.71234,35.67413
ナチュラルロ-ソン渋谷神宮前二丁目店,東京都渋谷区神宮前2-19-13,139.71033,35.67342
（株）吉川酒店,東京都渋谷区神宮前2-33-5,139.70839,35.673
セブンイレブン渋谷神宮前2丁目店,東京都渋谷区神宮前2－5－6,139.71321,35.67244
サンクス神宮前2丁目店,東京都渋谷区神宮前2丁目32,139.70871,35.67223
エ-エムピ-エム神宮前3丁目店,東京都渋谷区神宮前3－23－3,139.70721,35.67063
ロ-ソン神宮前四丁目店,東京都渋谷区神宮前4-29-3,139.70647,35.66838
ミニストップ神宮前４丁目店,東京都渋谷区神宮前4-7-1,139.71175,35.66867
セブンイレブン神宮前店,東京都渋谷区神宮前4-8-1,139.71135,35.66824
ファミリ-マ-ト表参道北店,東京都渋谷区神宮前4-9-3 清原ビル,139.71086,35.66768
エ-エムピ-エム神宮前5丁目店,東京都渋谷区神宮前5－29－7,139.70322,35.66438
エ-エムピ-エム神宮前青山通り店,東京都渋谷区神宮前5－52－2,139.70934,35.66251
ファミリ-マ-ト神宮前店,東京都渋谷区神宮前6-17-10,139.70348,35.66563
サンクス神宮前店,東京都渋谷区神宮前6-29-2,139.70454,35.66759
ロ-ソン神山店,東京都渋谷区神山町12-3,139.69427,35.66295
セブンイレブン神山店,東京都渋谷区神山町24-3,139.68799,35.66262
サンクス渋谷NHＫ前店,東京都渋谷区神山町6-4 ラビアンヌビル1階,139.69392,35.66495
ナチュラルロ-ソン渋谷神泉町店,東京都渋谷区神泉町10-9,139.69278,35.6553
デイリ-ヤマザキ神泉店,東京都渋谷区神泉町4-6,139.69345,35.65749
エ-エムピ-エム渋谷電力館前店,東京都渋谷区神南1－12－10,139.70078,35.66322
エ-エムピ-エム渋谷神南1丁目店,東京都渋谷区神南1－20－15,139.69986,35.66193
ファミリ-マ-ト渋谷ファイヤ-通り店,東京都渋谷区神南1丁目12-14 宮田ビル,139.70078,35.66322
ファミリ-マ-ト神南一丁目店,東京都渋谷区神南1丁目20-5 ＮＡＶＩ渋谷,139.69986,35.66193
ポスタルロ-ソン代々木局店,東京都渋谷区西原1-42-2,139.68242,35.67686
セブンイレブン渋谷西原1丁目店,東京都渋谷区西原1丁目15－10,139.67935,35.67543
エ-エムピ-エム幡ヶ谷駅南店,東京都渋谷区西原2-31-5,139.67703,35.67601
ファミリ-マ-ト代々木上原駅前店,東京都渋谷区西原3-11-7,139.68005,35.66953
セブンイレブン代々木上原駅前店,東京都渋谷区西原3-7-3,139.68077,35.66986
ロ-ソン千駄ヶ谷一丁目店,東京都渋谷区千駄ケ谷1-20-6,139.71011,35.67921
ミニストップ千駄ヶ谷駅前店,東京都渋谷区千駄ケ谷1-30-8,139.70992,35.68078
ロ-ソン千駄ヶ谷店,東京都渋谷区千駄ケ谷3-11-3,139.70522,35.67844
ミニストップ千駄ヶ谷３丁目店,東京都渋谷区千駄ケ谷3-16-5,139.70708,35.67603
ファミリ-マ-ト柴崎千駄谷店,東京都渋谷区千駄ヶ谷3-31-2,139.70728,35.67722
スリ-エイト千駄ヶ谷店,東京都渋谷区千駄ケ谷3-41-5,139.70572,35.67858
エ-エムピ-エム千駄ヶ谷3丁目店,東京都渋谷区千駄ヶ谷3－53－17,139.70561,35.67434
生活彩家ア-ベイン原宿店,東京都渋谷区千駄ケ谷3-57-6,139.70439,35.67494
サンクス渋谷千駄ヶ谷店,東京都渋谷区千駄ヶ谷3丁目52番1号,139.7065,35.67462
セブンイレブン千駄ケ谷店,東京都渋谷区千駄ケ谷4－21－5,139.70671,35.68016
ミニストップ千駄ヶ谷４丁目店,東京都渋谷区千駄ケ谷4-24-13,139.70584,35.68061
エ-エムピ-エム千駄ヶ谷4丁目店,東京都渋谷区千駄ケ谷4－27－13,139.70419,35.68071
エ-エムピ-エム千駄ヶ谷鳩森店,東京都渋谷区千駄ケ谷5-16-10,139.70514,35.68265
サンクス代々木東口店,東京都渋谷区千駄ヶ谷5-20-12,139.70346,35.68271
セブンイレブン代々木イ－スト店,東京都渋谷区千駄ヶ谷5－23－17,139.7034,35.68359
エ-エムピ-エム千駄ヶ谷5丁目店,東京都渋谷区千駄ヶ谷5－32－6,139.70363,35.68602
スリ-エフ代々木駅東口店,東京都渋谷区千駄ヶ谷5-22-3,139.70377,35.68331
セブンイレブン渋谷代官山店,東京都渋谷区代官山町14番23号,139.70369,35.65029
ロ-ソン代官山駅前店,東京都渋谷区代官山町19-2,139.70346,35.64827
セブンイレブン渋谷代々木1丁目南店,東京都渋谷区代々木1－30－1,139.70177,35.68184
セブンイレブン渋谷代々木1丁目店,東京都渋谷区代々木1－36－4,139.70117,35.68393
エ-エムピ-エム代々木1丁目店,東京都渋谷区代々木1－38－5,139.70087,35.68281
ナチュラルロ-ソン代々木駅西店,東京都渋谷区代々木1-39-11,139.70023,35.68259
ファミリ-マ-ト代々木一丁目店,東京都渋谷区代々木1-57-2,139.70142,35.68519
ファミリ-マ-ト山野学苑店,東京都渋谷区代々木1丁目53-1,139.69998,35.68431
エ-エムピ-エム新宿マインズタワ-店,東京都渋谷区代々木2-1-1,139.6993,35.68599
ファミリ-マ-ト代々木二丁目店,東京都渋谷区代々木2-11-20 新宿島津ビル,139.69716,35.6875
ミニストップ代々木二丁目店,東京都渋谷区代々木2-16-2,139.69586,35.68634
セブンイレブン渋谷代々木2丁目店,東京都渋谷区代々木2－23－1,139.69814,35.68575
ロ-ソン代々木二丁目店,東京都渋谷区代々木2-27-3,139.69917,35.68476
セブンイレブン渋谷代々木店,東京都渋谷区代々木2-38-1,139.69612,35.68509
ロ-ソン大江戸線新宿駅前店,東京都渋谷区代々木2-6-3,139.69868,35.68773
エ-エムピ-エム新宿駅南店,東京都渋谷区代々木2-7-5,139.69939,35.68797
エ-エムピ-エム渋谷文化女子大前店,東京都渋谷区代々木3-24-3,139.69275,35.68493
サンクス渋谷文化学園前店,東京都渋谷区代々木3-29-3,139.69286,35.68444
セブンイレブン代々木参宮橋店,東京都渋谷区代々木4-10-8,139.69225,35.67849
エ-エムピ-エム参宮橋駅前店,東京都渋谷区代々木4-2-6,139.69312,35.67897
サンクス代々木初台店,東京都渋谷区代々木4-33-10 ト-シンビル1階,139.68901,35.6817
サンクス参宮橋駅前店,東京都渋谷区代々木4-5-7,139.69258,35.6788
生活彩家渋谷並木橋店,東京都渋谷区東1-13-1,139.70799,35.65657
ファミリ-マ-ト渋谷東二丁目店,東京都渋谷区東2-17-9,139.70915,35.65261
エ-エムピ-エム渋谷東2丁目店,東京都渋谷区東2－22－1,139.70844,35.65411
セブンイレブン渋谷東3丁目店,東京都渋谷区東3-15-4,139.7093,35.65051
セブンイレブン渋谷東4丁目店,東京都渋谷区東4－8－1,139.71333,35.65556
サンクス渋谷マ-クシティ店,東京都渋谷区道玄坂1-12-5,139.69942,35.65852
ナチュラルロ-ソン渋谷道玄坂一丁目店,東京都渋谷区道玄坂1-18-1,139.69685,35.65739
ファミリ-マ-ト渋谷道玄坂店,東京都渋谷区道玄坂1-19-9,139.69611,35.65697
エ-エムピ-エム道玄坂1丁目店,東京都渋谷区道玄坂1－20－2,139.69643,35.65678
ロ-ソン道玄坂店,東京都渋谷区道玄坂1-22-12,139.69557,35.65623
エ-エムピ-エム渋谷中央街店,東京都渋谷区道玄坂1-9-4,139.69958,35.65718
セブンイレブン渋谷道玄坂2丁目店,東京都渋谷区道玄坂2－11－4,139.69606,35.65786
ロ-ソン道玄坂二丁目店,東京都渋谷区道玄坂2-20-26,139.69638,35.65949
エ-エムピ-エム道玄坂2丁目店,東京都渋谷区道玄坂2－29－8,139.69817,35.65953
ミニストップ道玄坂２丁目店,東京都渋谷区道玄坂2-6-11,139.69928,35.6589
ファミリ-マ-ト道玄坂二丁目店,東京都渋谷区道玄坂二丁目6-15,139.69928,35.6589
エ-エムピ-エム渋谷南平台町店,東京都渋谷区南平台町1－10,139.69714,35.65577
セブンイレブン渋谷笹塚東店,東京都渋谷区幡ケ谷1-11-11,139.67191,35.67458
セブンイレブン渋谷幡ケ谷駅前店,東京都渋谷区幡ヶ谷2－14－9,139.67604,35.67764
ファミリ-マ-ト幡ヶ谷三丁目店,東京都渋谷区幡ヶ谷3-19-2,139.67502,35.67954
スリ-エイト幡ケ谷店,東京都渋谷区幡ケ谷3-24-7,139.67307,35.67978
エ-エムピ-エム渋谷富ヶ谷1丁目,東京都渋谷区富ヶ谷1－13－9,139.69121,35.66743
ナチュラルロ-ソン富ケ谷山手通り店,東京都渋谷区富ヶ谷1-30-22,139.68895,35.6654
ナチュラルロ-ソン代々木公園西店,東京都渋谷区富ケ谷1-43-3,139.69124,35.66682
セブンイレブン渋谷代々木公園店,東京都渋谷区富ヶ谷1丁目19－4,139.69189,35.66606
コミュニティ・ストア富ヶ谷ＦＵＪＩＹＡ店,東京都渋谷区富ケ谷2-18-18,139.68465,35.6633
セブンイレブン渋谷富ケ谷2丁目店,東京都渋谷区富ヶ谷2－9－18,139.68671,35.66473
セブンイレブン渋谷本町1丁目店,東京都渋谷区本町1－10－1,139.68362,35.68015
ファミリ-マ-ト荒井屋幡代店,東京都渋谷区本町1-16-3,139.68117,35.67935
ロ-ソン渋谷本町一丁目店,東京都渋谷区本町1-21-1,139.67967,35.67859
ファミリ-マ-ト初台駅北口店,東京都渋谷区本町1-4-15,139.68509,35.68167
セブンイレブン渋谷オペラ通り店,東京都渋谷区本町1-53-11,139.68417,35.68274
（名）花田屋酒店,東京都渋谷区本町2-12-3,139.68166,35.68304
セブンイレブン渋谷本町2丁目店,東京都渋谷区本町2-12-3,139.68166,35.68304
エ-エムピ-エム渋谷本町2丁目店,東京都渋谷区本町2－4－12,139.68402,35.68381
サンクス渋谷本町3丁目店,東京都渋谷区本町3-41-11,139.68126,35.68828
ロ-ソン渋谷本町店,東京都渋谷区本町3-48-21,139.68285,35.68763
フ-ドスタイル渋谷本町店,東京都渋谷区本町3-52-6,139.68402,35.68681
セブンイレブン渋谷本町4丁目店,東京都渋谷区本町4－19－4,139.67975,35.6884
ファミリ-マ-ト幡ヶ谷本町店,東京都渋谷区本町4-45-2,139.67772,35.68565
セブンイレブン渋谷本町店,東京都渋谷区本町5-44-7,139.67445,35.68288
ミニストップ渋谷本町６丁目店,東京都渋谷区本町6-35-4,139.67708,35.68016
セブンイレブン渋谷不動通り坂下店,東京都渋谷区本町6-8-3,139.67862,35.68284
ロ-ソン渋谷鴬谷町店,東京都渋谷区鶯谷町15-9,139.70059,35.65403
セブンイレブン小金井北大通り店,東京都小金井市梶野町4-1-36,139.52708,35.70547
ミニストップ小金井梶野町店,東京都小金井市梶野町4-19-20,139.52518,35.70793
セブンイレブン小金井梶野4丁目店,東京都小金井市梶野町4-17-7,139.52217,35.70873
サンクス東小金井駅前店,東京都小金井市梶野町5-1プラザ東小金井,139.52545,35.70266
ファミリ-マ-ト東小金井西口店,東京都小金井市梶野町5-2-25,139.52313,35.702
ファミリ-マ-ト小金井貫井南町店,東京都小金井市貫井南町2-1-13,139.49886,35.69333
エ-エムピ-エム小金井貫井北町3丁目店,東京都小金井市貫井北町3－18－13,139.49593,35.71013
スリ-エイト小金井北町店,東京都小金井市貫井北町3-25-10,139.50145,35.70969
セブンイレブン小金井貫井店,東京都小金井市貫井北町5-26,139.49011,35.7037
スリ-エフ小金井関野町店,東京都小金井市関野町1-4-1,139.52127,35.71313
ファミリ-マ-ト小金井桜町店,東京都小金井市桜町1-15-8,139.50885,35.71157
武蔵野リ-バ（株）,東京都小金井市前原町1-3-9,139.51236,35.68924
ファミリ-マ-ト並木前原店,東京都小金井市前原町3-2,139.50423,35.69358
セブンイレブン小金井前原町3丁目店,東京都小金井市前原町3－41－24,139.50539,35.69814
サンクス小金井東八通り店,東京都小金井市前原町4-11-40,139.50401,35.6891
たなか屋,東京都小金井市前原町4-17-14,139.50455,35.68962
サンクス小金井前原4丁目店,東京都小金井市前原町4丁目17-14,139.50455,35.68962
サ-クルＫ府中浅間町店,東京都小金井市前原町4丁目1番6号,139.50105,35.68463
スリ-エフ前原町店,東京都小金井市前原町5-14-27,139.50224,35.69168
ロ-ソン小金井前原町５丁目店,東京都小金井市前原町5-2-47,139.49663,35.68707
セブンイレブン小金井連雀通り店,東京都小金井市中町2丁目5番1号,139.52007,35.69516
サ-クルＫ小金井中町店,東京都小金井市中町2丁目8番2号,139.51828,35.6953
セブンイレブン小金井中町3丁目店,東京都小金井市中町3－17－8,139.51219,35.69962
ファミリ-マ-ト富士樹林東町店,東京都小金井市東町1-40-11,139.52698,35.69402
セブンイレブン小金井東町店,東京都小金井市東町2-12-3,139.52815,35.69535
セブンイレブン小金井東町3丁目店,東京都小金井市東町3－5－20,139.52762,35.70013
ミニストップ小金井東町店,東京都小金井市東町4-37-24,139.52386,35.69893
ファミリ-マ-ト東小金井駅南口店,東京都小金井市東町4-42-1,139.5247,35.70098
セブンイレブン東小金井南口店,東京都小金井市東町4-42-20,139.5247,35.70098
味のマスヤ,東京都小金井市東町4-6-2,139.52592,35.69495
ファミリ-マ-ト武蔵小金井南店,東京都小金井市本町1-12,139.50993,35.69916
酒屋大丸,東京都小金井市本町1-1-7,139.51033,35.69801
セブンイレブン武蔵小金井本町2丁目店,東京都小金井市本町2-6-12,139.50754,35.70254
サンクス武蔵小金井駅前店,東京都小金井市本町2-5-3,139.50743,35.70172
セブンイレブンムサシ小金井北口店,東京都小金井市本町3-8-6,139.50821,35.70607
ファミリ-マ-ト中川小金井北店,東京都小金井市本町5-15-9,139.50734,35.70371
セブンイレブン小金井本町5丁目店,東京都小金井市本町5－21－15,139.5051,35.70289
サンクス武蔵小金井南口店,東京都小金井市本町6-13-17 タカキビル8サンライズ武蔵小金,139.50641,35.69929
ファミリ-マ-ト小金井市役所前店,東京都小金井市本町6-5-3,139.5042,35.69924
サンクス東小金井店,東京都小金井市緑町2-2,139.52106,35.70532
ロ-ソン小金井緑町２丁目店,東京都小金井市緑町2-8-29,139.52127,35.70815
セブンイレブン小金井緑町店,東京都小金井市緑町4-5-1,139.51382,35.70618
セブンイレブン小平鷹の台店,東京都小平市たかの台31-15,139.46097,35.72372
ファミリ-マ-ト鷹の台駅前店,東京都小平市たかの台44-7,139.46068,35.72291
ファミリ-マ-ト花小金井駅北口店,東京都小平市花小金井1-10-5,139.51422,35.72598
かどまん,東京都小平市花小金井1-6-13,139.51389,35.72956
セブンイレブン小平花小金井5丁目店,東京都小平市花小金井5-45-12,139.51096,35.7344
サ-クルＫ小平花小金井店,東京都小平市花小金井5丁目1番20号,139.50635,35.73123
セブンイレブン花小金井6丁目店,東京都小平市花小金井6-20-8,139.51137,35.73026
ミニストップ花小金井駅前店,東京都小平市花小金井南町1-18-45-10,139.51118,35.72489
セブンイレブン小平花小金井駅南口店,東京都小平市花小金井南町1-25-33,139.51326,35.72513
ファミリ-マ-ト花小金井駅南口店,東京都小平市花小金井南町1-27-21,139.51219,35.72629
エ-エムピ-エム小平花小金井南町店,東京都小平市花小金井南町2-1-21,139.51402,35.72185
ファミリ-マ-ト秀栄花小金井店,東京都小平市花小金井南町3丁目38番6号,139.52003,35.72238
サ-クルＫ小平花小金井二丁目店,東京都小平市花小金井二丁目19番11号,139.51596,35.73109
サンクス小平回田町店,東京都小平市回田町107-1,139.49367,35.71536
ファミリ-マ-ト小平回田町店,東京都小平市回田町311-1,139.49806,35.71454
セブンイレブン小平学園東町店,東京都小平市学園東町2-14-16,139.48676,35.72596
セブンイレブン小平一橋学園東店,東京都小平市学園東町2-5-1,139.48323,35.72353
スリ-エフ小平学園東町店,東京都小平市学園東町3-7-28,139.49118,35.72527
セブンイレブン小平喜平町1丁目店,東京都小平市喜平町1－11－2,139.48871,35.71656
セブンイレブン小平小川西町店,東京都小平市小川西町1-28-10,139.45496,35.7383
ファミリ-マ-ト小平小川西町店,東京都小平市小川西町3-26-1,139.46379,35.74028
スリ-エフ小平小川駅前店,東京都小平市小川西町4-13-14,139.46201,35.73652
キッチンリボン,東京都小平市小川西町4-14-21,139.46245,35.73581
セブンイレブン小川駅西口店,東京都小平市小川西町4-16-1,139.46317,35.73781
ロ-ソン小平小川町１丁目店,東京都小平市小川町1-279-2,139.44632,35.73247
セブンイレブン東大和市駅南店,東京都小平市小川町1-388-5,139.43623,35.73215
セブンイレブン小平小川上宿店,東京都小平市小川町1-460-5,139.44223,35.72988
オレンジマ-トあらい,東京都小平市小川町1-741,139.44946,35.72411
セブンイレブン小平創価高校前店,東京都小平市小川町1-891-3,139.45349,35.72623
サ-クルＫ小平たかの街道店,東京都小平市小川町1丁目1115番地3,139.46518,35.72801
ファミリ-マ-ト小平小川町店,東京都小平市小川町1丁目854,139.45355,35.73065
セブンイレブン小川店,東京都小平市小川東町1-21-15,139.46423,35.73759
セブンイレブン小平小川東町1丁目店,東京都小平市小川東町1丁目11番11号,139.46519,35.73486
第一パンバラエティストア,東京都小平市小川東町3-6-1,139.47272,35.73488
ショップ９９上水本町店,東京都小平市上水本町1-31-9,139.46443,35.71714
サ-クルＫ小平上水本町店,東京都小平市上水本町2丁目14番34号,139.47014,35.71777
セブンイレブン小平上水本町店,東京都小平市上水本町4-20-18,139.47981,35.7163
セブンイレブン小平向山店,東京都小平市上水本町5-5-20,139.4763,35.70953
セブンイレブン小平大沼町店,東京都小平市大沼町2-726-2,139.50256,35.74256
サ-クルＫ小平大沼町店,東京都小平市大沼町2丁目855番地1,139.49696,35.74236
セブンイレブン小平中島町店,東京都小平市中島町28-10,139.43405,35.72881
セブンイレブン小平仲町東店,東京都小平市仲町268,139.49106,35.73174
（有）バ-モス,東京都小平市仲町55-4,139.48117,35.73359
サ-クルＫ小平学園西町店,東京都小平市津田町3丁目35番22号,139.47041,35.72516
セブンイレブン公立昭和病院店,東京都小平市天神町2丁目450番地,139.50293,35.73136
サ-クルＫ小平天神町一丁目店,東京都小平市天神町一丁目280番地,139.50024,35.72916
ファミリ-マ-ト丸萬小平南口店,東京都小平市美園町1-12-5,139.48813,35.73487
セブンイレブン小平駅北口店,東京都小平市美園町2-1-11,139.48703,35.73804
ファミリ-マ-ト小平美園町店,東京都小平市美園町二丁目19番19号,139.49214,35.73551
セブンイレブン小平新小金井街道店,東京都小平市鈴木町1-489-1,139.49673,35.71959
サンクス小平鈴木町店,東京都小平市鈴木町1丁目209-11,139.49828,35.72626
スリ-エフ小平鈴木町店,東京都小平市鈴木町2-150-1,139.5105,35.72662
セブンイレブン小平鈴木町店,東京都小平市鈴木町2-233-1,139.50439,35.72427
セブンイレブン昭島つつじが丘1丁目店,東京都昭島市つつじが丘1丁目1－8,139.36894,35.71769
ファミリ-マ-ト宮沢町一丁目店,東京都昭島市宮沢町1-20-8,139.36642,35.70496
ファミリ-マ-ト昭島諏訪松中通り店,東京都昭島市宮沢町484-3,139.37163,35.71264
ファミリ-マ-ト東中神駅前店,東京都昭島市玉川町1-1-13,139.38448,35.70595
セブンイレブン昭島玉川町5丁目店,東京都昭島市玉川町5－6－7,139.3772,35.70346
セブンイレブン昭島駅南口店,東京都昭島市昭和町2-5-12,139.36011,35.71323
ファミリ-マ-ト昭島駅南口店,東京都昭島市昭和町2-5-2,139.36011,35.71323
セブンイレブン昭島昭和町3丁目店,東京都昭島市昭和町3－11－5,139.36691,35.70663
ロ-ソン昭島松原町店,東京都昭島市松原町2-10-4,139.35036,35.71542
セブンイレブン拝島駅南口店,東京都昭島市松原町4-11-10,139.34401,35.71986
セブンイレブン昭島上川原2丁目店,東京都昭島市上川原町2－1－1,139.36075,35.71029
スリ-エフ昭島中神駅北口店,東京都昭島市中神町1177-14,139.37643,35.7096
スリ-エフ昭島中神店,東京都昭島市中神町1185,139.37431,35.71053
ファミリ-マ-ト昭島中神町店,東京都昭島市中神町1294-1,139.38095,35.714
セブンイレブン昭島中神駅南口店,東京都昭島市朝日町1-2-14,139.37643,35.70823
ファミリ-マ-ト中神駅前店,東京都昭島市朝日町1丁目6-1 原茂ビル,139.37547,35.70869
セブンイレブン昭島市役所前店,東京都昭島市田中町1-18-3,139.3539,35.70667
ロ-ソン昭島田中町１丁目店,東京都昭島市田中町1-26-5,139.35452,35.70399
サンクス昭島田中町団地入口店,東京都昭島市田中町2丁目23-9,139.35223,35.70331
セブンイレブン昭島駅北口店,東京都昭島市田中町562-8,139.36221,35.71389
セブンイレブン昭島昭和の森店,東京都昭島市田中町602-9,139.36201,35.71588
セブンイレブン昭島東町5丁目店,東京都昭島市東町5－9,139.38387,35.70097
エ-エムピ-エム昭島拝島2丁目店,東京都昭島市拝島町2-5-16,139.3412,35.70763
セブンイレブン昭島拝島町4丁目店,東京都昭島市拝島町4－17－28,139.34177,35.70601
セブンイレブン昭島美堀町1丁目店,東京都昭島市美堀町1－14－7,139.36508,35.72467
ファミリ-マ-ト昭島美堀町店,東京都昭島市美堀町4-13-41,139.35291,35.71878
ファミリ-マ-ト西武拝島店,東京都昭島市美堀町5-21-2,139.34811,35.71802
サ-クルＫ昭島武蔵野店,東京都昭島市武蔵野三丁目10番8号,139.37401,35.71944
スリ-エフ昭島福島町店,東京都昭島市福島町3-1-2,139.38145,35.69481
セブンイレブン昭島緑町2丁目店,東京都昭島市緑町2－30－23,139.34763,35.71424
セブンイレブン昭島緑町店,東京都昭島市緑町3-14-12,139.34549,35.70871
ミニストップ昭島緑町３丁目店,東京都昭島市緑町3-4-17,139.34898,35.7066
ロ-ソン昭島緑町店,東京都昭島市緑町5-19-11,139.33849,35.71489
サンクス飯田橋東口店,東京都新宿区下宮比町2-1,139.74353,35.70345
セブンイレブン新宿下落合1丁目店,東京都新宿区下落合1-6-3,139.7001,35.71604
セブンイレブン新宿下落合東店,東京都新宿区下落合1-2-14,139.69547,35.71584
エ-エムピ-エム下落合3丁目店,東京都新宿区下落合3－16－13,139.70284,35.72193
ファミリ-マ-ト目白駅前店,東京都新宿区下落合3-18-1,139.70407,35.72294
サンクス下落合店,東京都新宿区下落合4-5-4,139.69493,35.7179
ロ-ソン新宿靖国通店,東京都新宿区歌舞伎町1-1-16,139.702,35.69371
サンクス歌舞伎町店,東京都新宿区歌舞伎町1-27-1,139.70062,35.69527
エ-エムピ-エム歌舞伎町セントラルロ-ド店,東京都新宿区歌舞伎町1-14-3,139.70206,35.69452
ファミリ-マ-ト新宿コマ劇前店,東京都新宿区歌舞伎町1-14-7 ハヤシビル,139.70206,35.69452
ファミリ-マ-ト歌舞伎町一丁目店,東京都新宿区歌舞伎町1-16-1,139.70206,35.69388
セブンイレブン新宿駅靖国通り店,東京都新宿区歌舞伎町1－17－2,139.70135,35.69409
新鮮組歌舞伎町１丁目店,東京都新宿区歌舞伎町1-17-2,139.70135,35.69409
エ-エムピ-エム歌舞伎町一番街店,東京都新宿区歌舞伎町1-18-5,139.70154,35.69466
ファミリ-マ-ト西武新宿駅前店,東京都新宿区歌舞伎町1-29-1,139.70067,35.69585
ロ-ソン西武新宿駅北口店,東京都新宿区歌舞伎町1-30-1,139.69965,35.69589
セブンイレブン歌舞伎町あずま通り店,東京都新宿区歌舞伎町1-5-4,139.702,35.69371
サンクス歌舞伎町さくら通り店,東京都新宿区歌舞伎町1丁目13-1,139.70248,35.69442
エ-エムピ-エム新宿区役所通り店,東京都新宿区歌舞伎町2-10-6,139.70476,35.69537
デイリ-ヤマザキ新宿店,東京都新宿区歌舞伎町2-19-11,139.70457,35.69751
ロ-ソン歌舞伎町店,東京都新宿区歌舞伎町2-2-21,139.70667,35.69592
ミニストップ新宿歌舞伎町店,東京都新宿区歌舞伎町2-22-1,139.70404,35.69604
エ-エムピ-エム新宿歌舞伎町店,東京都新宿区歌舞伎町2-25-2,139.70372,35.69533
ロ-ソン歌舞伎町二丁目西店,東京都新宿区歌舞伎町2-26-10,139.70306,35.69547
ミニストップ歌舞伎町２丁目店,東京都新宿区歌舞伎町2-30-13,139.70346,35.6972
ファミリ-マ-ト歌舞伎町交番前店,東京都新宿区歌舞伎町2-38-3,139.70207,35.69644
デイリ-ヤマザキ西武新宿店,東京都新宿区歌舞伎町2-42-11カ-サ-新宿102号,139.70134,35.69778
（株）スリ-エフ,東京都新宿区歌舞伎町2-42-13,139.70134,35.69778
エ-エムピ-エム歌舞伎町2丁目店,東京都新宿区歌舞伎町2－42－16,139.70134,35.69778
サンクス歌舞伎町2丁目店,東京都新宿区歌舞伎町2-9-3,139.70534,35.69543
サンクス新宿職安通り店,東京都新宿区歌舞伎町2丁目32-7,139.70293,35.6978
セブンイレブン新宿河田町店,東京都新宿区河田町3-7,139.72075,35.69553
セブンイレブン新宿岩戸町店,東京都新宿区岩戸町11,139.73729,35.70136
セブンイレブン新宿喜久井町店,東京都新宿区喜久井町48,139.72015,35.70439
セブンイレブン柳町店,東京都新宿区原町1-22,139.72572,35.70068
ミニストップ新宿原町店,東京都新宿区原町3-5,139.72272,35.69953
セブンイレブン早稲田大学学生会館店,東京都新宿区戸山1－24－1,139.71764,35.70578
ロ-ソン新宿ステパ店,東京都新宿区戸山3-16,139.70914,35.70532
サンクス早大南門通り店,東京都新宿区戸塚町1-101-1,139.71996,35.7076
エ-エムピ-エム早稲田大学南門店,東京都新宿区戸塚町1-102,139.72072,35.70778
エ-エムピ-エム新宿荒木町店,東京都新宿区荒木町5-4,139.72356,35.68929
セブンイレブン新宿高田馬場1の南店,東京都新宿区高田馬場1－22－5,139.70456,35.71032
ロ-ソンストア１００高田馬場駅前通り店,東京都新宿区高田馬場1-29-2,139.70424,35.71079
エ-エムピ-エム高田馬場1丁目店,東京都新宿区高田馬場1－31－16,139.70323,35.70984
セブンイレブン高田馬場1丁目店,東京都新宿区高田馬場1－5－19,139.70831,35.71159
ファミリ-マ-ト高田馬場一丁目店,東京都新宿区高田馬場1-5-21 グランメ-ル高田馬場,139.70831,35.71159
サンクス高田馬場早稲田通り店,東京都新宿区高田馬場1丁目25-28,139.70604,35.71209
サンクス高田馬場店,東京都新宿区高田馬場1丁目34番2号,139.70406,35.71193
ファミリ-マ-ト高田馬場二丁目店,東京都新宿区高田馬場2-16-11,139.70525,35.71397
デイリ-ヤマザキ高田馬場2丁目店,東京都新宿区高田馬場2-8-4AUビル,139.70877,35.71218
サンクス新宿馬場口店,東京都新宿区高田馬場2丁目1番2号TOHMAビル,139.70978,35.7118
ポプラ高田馬場３丁目店,東京都新宿区高田馬場3-11-7,139.70024,35.71343
ファミリ-マ-ト高田馬場さかえ通り店,東京都新宿区高田馬場3-1-6 宝来ビル,139.70378,35.71477
生活彩家高田馬場駅前店,東京都新宿区高田馬場3-2-5,139.70331,35.71402
サンクス高田馬場さかえ通り店,東京都新宿区高田馬場3丁目2-13,139.70331,35.71402
ファミリ-マ-ト高田馬場四丁目店,東京都新宿区高田馬場4-11-10,139.7021,35.71287
サンクス高田馬場戸山口店,東京都新宿区高田馬場4-3-12,139.70239,35.7119
セブンイレブン高田馬場店,東京都新宿区高田馬場4-33-1,139.69754,35.70897
ミニストップ新宿左門町店,東京都新宿区左門町20,139.72037,35.68512
ロ-ソン　四谷左門町店,東京都新宿区左門町6-8,139.72052,35.68661
サンクス新宿坂町店,東京都新宿区坂町25-1,139.72621,35.69169
セブンイレブン新宿三栄町店,東京都新宿区三栄町8,139.72668,35.68739
ロ-ソン新宿山吹町店,東京都新宿区山吹町265-6,139.73138,35.70762
エ-エムピ-エム新宿山吹町店,東京都新宿区山吹町335,139.72905,35.70765
ファミリ-マ-ト四ツ谷駅前店,東京都新宿区四谷1-2-31,139.72868,35.68586
ロ-ソン四谷一丁目店,東京都新宿区四谷1-23-6,139.72758,35.68718
サンクス四谷2丁目店,東京都新宿区四谷2-13-3,139.72363,35.68802
エ-エムピ-エム四谷3丁目店,東京都新宿区四谷3－11,139.71895,35.68801
サンクス四谷3丁目店,東京都新宿区四谷3-5-5,139.7213,35.68785
スリ-エフ四谷4丁目店,東京都新宿区四谷4-1,139.71814,35.68733
エ-エムピ-エム四谷4丁目店,東京都新宿区四谷4－24－26,139.71573,35.69001
ファミリ-マ-ト四谷区民センタ-前店,東京都新宿区四谷4-29,139.71439,35.68822
セブンイレブン四谷4丁目店,東京都新宿区四谷4-3,139.71721,35.68785
ファミリ-マ-ト四谷四丁目店,東京都新宿区四谷4-7,139.71628,35.6873
サ-クルＫ四谷二丁目店,東京都新宿区四谷二丁目1番3号,139.72675,35.68648
ファミリ-マ-ト市谷田町店,東京都新宿区市谷田町2-38-3,139.73663,35.69464
ファミリ-マ-ト市谷新見附橋店,東京都新宿区市谷田町3-1,139.73874,35.696
サンクス市谷見附店,東京都新宿区市谷八幡町1-1,139.73428,35.69249
ファミリ-マ-トサンズ市谷柳町店,東京都新宿区市谷柳町19,139.72577,35.69874
ロ-ソン若松町店,東京都新宿区若松町11-1,139.71753,35.69963
ミニストップ新宿若松町店,東京都新宿区若松町12-3,139.71683,35.69924
セブンイレブン新宿若松町店,東京都新宿区若松町31-8,139.72,35.70005
サンクス四谷若葉店,東京都新宿区若葉3-2-6,139.72438,35.68321
ファミリ-マ-ト四谷舟町店,東京都新宿区舟町6,139.72096,35.68919
ファミリ-マ-ト曙橋店,東京都新宿区住吉町1-15,139.72261,35.69211
エ-エムピ-エム曙橋住吉町店,東京都新宿区住吉町4-7,139.72098,35.69245
セブンイレブン新宿曙橋通り店,東京都新宿区住吉町5-7,139.72092,35.69319
ロ-ソン新宿住吉町店,東京都新宿区住吉町8-22,139.7215,35.69316
スリ-エフ新宿上落合1丁目店,東京都新宿区上落合1-27-8,139.69055,35.71255
セブンイレブン新宿上落合1丁目店,東京都新宿区上落合1－29－7,139.69025,35.7117
サンクス新宿上落合店,東京都新宿区上落合1丁目16-3,139.69363,35.71527
ファミリ-マ-ト上落合二丁目店,東京都新宿区上落合2-29-6,139.68504,35.71088
エ-エムピ-エム新宿上落合2丁目店,東京都新宿区上落合2－8－16,139.6898,35.71376
甲州屋酒店,東京都新宿区上落合3-12-11,139.68378,35.71216
セブンイレブン新宿落合駅前店,東京都新宿区上落合3-8-27,139.68454,35.71099
新鮮組上落合店,東京都新宿区上落合3-9-1,139.68388,35.71061
ミニストップ信濃町駅北口店,東京都新宿区信濃町31,139.71973,35.68132
ナチュラルロ-ソン慶應義塾大学病院店,東京都新宿区信濃町35,139.71906,35.68066
ファミリ-マ-ト新宿御苑駅前店,東京都新宿区新宿1-13-1,139.71149,35.68902
エ-エムピ-エム新宿御苑花園通り店,東京都新宿区新宿1-19-7,139.71266,35.68963
ロ-ソン新宿一丁目店,東京都新宿区新宿1-26-6,139.71448,35.6908
エ-エムピ-エム新宿1丁目店,東京都新宿区新宿1－34－11,139.71075,35.69118
ロ-ソン新宿御苑駅前店,東京都新宿区新宿1-9-4,139.7124,35.68845
セブンイレブン新宿1丁目店,東京都新宿区新宿1丁目28番10,139.7131,35.69091
サンクス新宿2丁目店,東京都新宿区新宿2-16-8 北斗新宿ビル,139.70866,35.69146
エ-エムピ-エムビッグス新宿ビル店,東京都新宿区新宿2－19－1,139.70758,35.69122
セブンイレブン新宿2丁目店,東京都新宿区新宿2-3-11,139.70842,35.68896
ファミリ-マ-ト新宿二丁目店,東京都新宿区新宿2-5-12 ダヴィンチ新宿ＡＶＥＮＵＥ1Ｆ,139.707,35.68929
ロ-ソン新宿通り二丁目店,東京都新宿区新宿2-7-1,139.70818,35.68959
エ-エムピ-エム新宿御苑駅前店,東京都新宿区新宿2－8－1,139.70966,35.68905
サンクス新宿三丁目駅前店,東京都新宿区新宿2丁目13-10,139.70851,35.6901
ファミリ-マ-ト新宿三丁目店,東京都新宿区新宿3-21-7 東新ビル,139.70222,35.69297
エ-エムピ-エム新宿4丁目店,東京都新宿区新宿4－1－22,139.70261,35.68863
セブンイレブン新宿4丁目店,東京都新宿区新宿4－3－12,139.70337,35.68833
サンクス新宿4丁目店,東京都新宿区新宿4-2-16,139.7032,35.68896
ファミリ-マ-ト新宿靖国通り店,東京都新宿区新宿5-17-13 常陽中台ビル,139.70569,35.69283
ファミリ-マ-ト新宿五丁目店,東京都新宿区新宿5-18-14,139.70578,35.69421
ファミリ-マ-ト厚生年金会館前店,東京都新宿区新宿5-2-3,139.71188,35.69224
サンクス新宿5丁目店,東京都新宿区新宿5丁目11-2,139.70799,35.69252
ポプラ東大久保店,東京都新宿区新宿6-24-16,139.71111,35.69734
ファミリ-マ-ト東京医科大学前店,東京都新宿区新宿6-6-1,139.70953,35.69347
セブンイレブン新宿6丁目店,東京都新宿区新宿6-9-1,139.70865,35.69374
エ-エムピ-エム新宿7丁目店,東京都新宿区新宿7－2－4,139.71321,35.698
ロ-ソン飯田橋中店,東京都新宿区新小川町5-13,139.74161,35.70634
ロ-ソン新小川町店,東京都新宿区新小川町6-8,139.74236,35.70731
エ-エムピ-エム新宿新小川町店,東京都新宿区新小川町7-17,139.74083,35.70735
ファミリ-マ-ト神楽坂下店,東京都新宿区神楽坂2-10 カグラヒルズ,139.742,35.70129
セブンイレブン新宿神楽坂3丁目店,東京都新宿区神楽坂3－2－7,139.74042,35.70156
エ-エムピ-エム神楽坂5丁目店,東京都新宿区神楽坂5－1,139.73907,35.70206
ファミリ-マ-ト神楽坂店,東京都新宿区神楽坂6-77,139.73689,35.70245
サンクス神楽坂駅前店,東京都新宿区神楽坂6丁目32,139.73605,35.70382
サ-クルＫ神楽坂三丁目店,東京都新宿区神楽坂三丁目2番地20,139.74042,35.70156
ロ-ソン新宿水道町店,東京都新宿区水道町3-2,139.73576,35.70908
セブンイレブン新宿水道町店,東京都新宿区水道町4-23,139.73645,35.70823
ファミリ-マ-ト西五軒町店,東京都新宿区西五軒町9-2,139.73737,35.70781
ミニストップ新宿駅西口店,東京都新宿区西新宿1-10-1,139.69835,35.68975
ナチュラルロ-ソン新宿駅西店,東京都新宿区西新宿1-13-12,139.69673,35.68969
エ-エムピ-エム西新宿1丁目店,東京都新宿区西新宿1－13－3,139.69673,35.68969
ロ-ソン西新宿１丁目店,東京都新宿区西新宿1-19-13,139.69717,35.68829
エ-エムピ-エム新宿新都心店,東京都新宿区西新宿1-20-2,139.69608,35.68792
エ-エムピ-エム新宿エステック情報ビル店,東京都新宿区西新宿1-24-1,139.69562,35.69044
ロ-ソン新宿センタ-ビル西店,東京都新宿区西新宿1-25-1,139.6955,35.69176
ロ-ソン新宿センタ-ビル店,東京都新宿区西新宿1-25-1,139.6955,35.69176
エ-エムピ-エム新宿損保ジャパンビル店,東京都新宿区西新宿1－26－1,139.69569,35.69283
エ-エムピ-エム新宿野村ビル店,東京都新宿区西新宿1-26-2,139.69569,35.69283
ファミリ-マ-ト西新宿一丁目店,東京都新宿区西新宿1-3-17 第1アオイビル,139.69878,35.69325
丸越小田急ハルク店,東京都新宿区西新宿1-5-1,139.69868,35.6912
エ-エムピ-エム新宿エルタワ-店,東京都新宿区西新宿1-6-1,139.69736,35.69234
セブンイレブン西新宿コク－ンタワ－店,東京都新宿区西新宿1－7－2,139.69727,35.6916
セブンイレブン西新宿1丁目店,東京都新宿区西新宿1丁目11番11号,139.69777,35.68975
サンクス西新宿1丁目店,東京都新宿区西新宿1丁目17-1,139.69838,35.68921
サンクス西新宿地下街店,東京都新宿区西新宿1丁目8-1,139.69685,35.69051
ミニストップ新宿三井ビル店,東京都新宿区西新宿2-1-1,139.69388,35.69166
生活彩家新宿京王プラザホテル店,東京都新宿区西新宿2-2-1,139.69429,35.68993
（株）ＪＲ東日本リテ-ルネット,東京都新宿区西新宿2-3-1,139.69478,35.6882
エ-エムピ-エム新宿モノリス店,東京都新宿区西新宿2-3-1,139.69478,35.6882
生活彩家ＫＤＤＩ新宿店,東京都新宿区西新宿2-3-3,139.69478,35.6882
エ-エムピ-エム新宿第一生命ビル店,東京都新宿区西新宿2-7-1,139.69122,35.69127
セブンイレブン東京都庁第二本庁舎店,東京都新宿区西新宿2-9-1,139.69202,35.68792
サンクス西新宿3丁目店,東京都新宿区西新宿3-11-20,139.68858,35.6855
ミニストップ西新宿３丁目店,東京都新宿区西新宿3-2-11,139.69328,35.68661
ファミリ-マ-ト新宿ワシントンホテル店,東京都新宿区西新宿3-2-9 ワシントンホテル,139.69328,35.68661
サンクス東京オペラシティ店,東京都新宿区西新宿3-20-2 東京オペラシティタワ-B1,139.68689,35.68318
セブンイレブン西新宿3丁目店,東京都新宿区西新宿3-8-3,139.68939,35.68555
ロ-ソン京王プレッソイン新宿店,東京都新宿区西新宿3-4-5,139.6925,35.68554
生活彩家新宿パ-クタワ-店,東京都新宿区西新宿3-7-1,139.69067,35.68546
ファミリ-マ-トサンズ西新宿三丁目店,東京都新宿区西新宿3丁目1-4 第2佐山ビル,139.69501,35.6873
サンクス新宿山手通り店,東京都新宿区西新宿3丁目19-1,139.6879,35.68369
セブンイレブン十二社店,東京都新宿区西新宿4-2-15-101,139.68608,35.69022
サンクス新宿十二社店,東京都新宿区西新宿4-2-18,139.68608,35.69022
エ-エムピ-エム西新宿4丁目店,東京都新宿区西新宿4－3－12,139.68578,35.69006
エ-エムピ-エム新宿中央公園店,東京都新宿区西新宿4-32-6,139.6886,35.68747
ファミリ-マ-トサンズ西新宿店,東京都新宿区西新宿4-5-6 ＩＫビル,139.68419,35.68956
エ-エムピ-エム日土地西新宿ビル店,東京都新宿区西新宿6－10－1,139.69075,35.69471
ファミリ-マ-ト西新宿オ-クテラス店,東京都新宿区西新宿6-10-2 オ-クテラス101,139.69075,35.69471
エ-エムピ-エム西新宿アイタウンプラザ店,東京都新宿区西新宿6-21-1,139.68764,35.69347
清林堂,東京都新宿区西新宿6-2-3,139.694,35.69369
エ-エムピ-エム西新宿三井ビル店,東京都新宿区西新宿6-24-1,139.68887,35.69491
ファミリ-マ-ト西新宿アトラスタワ-店,東京都新宿区西新宿6-25,139.6879,35.69457
清林堂,東京都新宿区西新宿6-4-1,139.69308,35.69383
セブンイレブン西新宿6丁目店,東京都新宿区西新宿6-26-12,139.68854,35.69537
セブンイレブン西新宿小滝橋通り店,東京都新宿区西新宿7-10-17,139.69872,35.69394
トモエビル,東京都新宿区西新宿7-18-1,139.69685,35.69596
サンクス西新宿柏木公園前店,東京都新宿区西新宿7-18-1 巴ビル1F,139.69685,35.69596
ナチュラルロ-ソン西新宿７丁目店,東京都新宿区西新宿7-20-3,139.69557,35.69421
木村屋ビル売店,東京都新宿区西新宿7-5-25,139.6985,35.69711
サンクス西新宿7丁目店,東京都新宿区西新宿7-2-6 西新宿Ｋ-1ビル,139.69878,35.69527
ファミリ-マ-ト西新宿小滝橋通店,東京都新宿区西新宿7-9-16,139.69804,35.69458
エ-エムピ-エム西新宿7丁目店,東京都新宿区西新宿7－9－17,139.69804,35.69458
セブンイレブン西新宿7丁目店,東京都新宿区西新宿7丁目21番3号,139.69496,35.69443
サンクス西新宿小滝橋通り店,東京都新宿区西新宿7丁目8番10号,139.69809,35.69556
ファミリ-マ-トタカノ西新宿店,東京都新宿区西新宿8-15-3,139.69133,35.69564
セブンイレブン西新宿8丁目店,東京都新宿区西新宿8－2－26,139.69464,35.69563
ロ-ソン西早稲田一丁目店,東京都新宿区西早稲田1-10-7,139.72208,35.7112
ファミリ-マ-ト早稲田大隈通り店,東京都新宿区西早稲田1-8-22,139.72023,35.71012
ロ-ソン早稲田通店,東京都新宿区西早稲田2-18-18,139.71127,35.71052
エ-エムピ-エム西早稲田2丁目店,東京都新宿区西早稲田2－20－1,139.70972,35.70931
ファミリ-マ-ト西早稲田二丁目店,東京都新宿区西早稲田2-5-16,139.71538,35.7092
サンクス西早稲田店,東京都新宿区西早稲田3-27-1,139.71112,35.7119
エ-エムピ-エム西早稲田3丁目店,東京都新宿区西早稲田3－30－20,139.71144,35.7129
セブンイレブン新宿西早稲田3丁目店,東京都新宿区西早稲田3-15-3,139.71317,35.71084
セブンイレブン新宿西落合1丁目店,東京都新宿区西落合1-31-14,139.67934,35.71985
ファミリ-マ-ト西落合店,東京都新宿区西落合1-31-19,139.67934,35.71985
ミニストップ西落合２丁目店,東京都新宿区西落合2-7-16,139.67842,35.71987
ジャストスポット西落合店,東京都新宿区西落合3-1-16,139.683,35.72284
ロ-ソン西落合三丁目店,東京都新宿区西落合3-1-24,139.683,35.72284
ナチュラルロ-ソン新宿西落合３丁目店,東京都新宿区西落合3-22-6,139.67882,35.72392
サンクス新宿西落合店,東京都新宿区西落合3丁目15-5,139.67989,35.72331
セブンイレブン新宿西落合4丁目店,東京都新宿区西落合4-3-13,139.68141,35.72711
ロ-ソン早稲田町店,東京都新宿区早稲田町74,139.72255,35.7059
ファミリ-マ-ト早稲田鶴巻町店,東京都新宿区早稲田鶴巻町519,139.72351,35.70781
セブンイレブン早稲田店,東京都新宿区早稲田鶴巻町521,139.72505,35.70741
サンクス新宿鶴巻町店,東京都新宿区早稲田鶴巻町565,139.72667,35.70945
ミニストップ早稲田南町店,東京都新宿区早稲田南町35,139.72433,35.70517
サンクス新大久保店,東京都新宿区大久保1-10-15,139.70436,35.70039
スリ-エフ新大久保店,東京都新宿区大久保1-15-15,139.70343,35.7005
セブンイレブン新宿東店,東京都新宿区大久保1-1-7,139.70717,35.69839
ロ-ソン大久保一丁目東店,東京都新宿区大久保1-3-14,139.70746,35.70026
韓国食品２４時,東京都新宿区大久保2-18-10,139.70544,35.7016
エ-エムピ-エム新宿大久保2丁目店,東京都新宿区大久保2－29－23,139.70361,35.70364
サンクス新宿明治通り店,東京都新宿区大久保2-3-9,139.70883,35.70396
セブンイレブン新宿大久保2丁目店,東京都新宿区大久保2－6－10,139.70786,35.70149
ファミリ-マ-ト新宿スポ-ツセンタ-店,東京都新宿区大久保3-5-1,139.70354,35.70494
セブンイレブン牛込北町店,東京都新宿区箪笥町28,139.73254,35.69994
サンクス新宿中井店,東京都新宿区中井1丁目10-8,139.68303,35.71498
セブンイレブン新宿中井駅前店,東京都新宿区中落合1-16-1,139.68774,35.71611
エ-エムピ-エム新宿中井駅前店,東京都新宿区中落合1-17-3,139.68791,35.71546
ファミリ-マ-ト伊勢元中落合店,東京都新宿区中落合3-24-9,139.68773,35.72253
さがみや,東京都新宿区中里町31,139.73132,35.70569
エ-エムピ-エム新宿天神町店,東京都新宿区天神町21,139.7314,35.70523
ファミリ-マ-ト東榎町店,東京都新宿区東榎町5,139.73006,35.70465
エ-エムピ-エム新宿東五軒町店,東京都新宿区東五軒町3－5,139.73943,35.70579
ミニストップ信濃町駅南口店,東京都新宿区南元町19,139.72063,35.6793
エ-エムピ-エム早稲田高校前店,東京都新宿区馬場下町62-13,139.7198,35.70656
ファミリ-マ-ト早稲田駅西店,東京都新宿区馬場下町9,139.71902,35.70608
セブンイレブン新宿職安通り店,東京都新宿区百人町1-1-1,139.70172,35.6989
ロ-ソンストア１００新大久保駅前店,東京都新宿区百人町1-11-22,139.69942,35.7006
サンクス大久保駅前店,東京都新宿区百人町1-17-2,139.69762,35.70094
ミニストップ百人町１丁目店,東京都新宿区百人町1-18-8,139.69572,35.70134
ファミリ-マ-ト大久保駅前店,東京都新宿区百人町1-19-14,139.69617,35.70108
ファミリ-マ-ト新大久保店,東京都新宿区百人町1-3-14,139.70201,35.70044
セブンイレブン新宿新大久保駅前店,東京都新宿区百人町1-6-18,139.70113,35.7005
セブンイレブン新宿大久保駅前店,東京都新宿区百人町2-21-3,139.69728,35.70246
ロ-ソン百人町二丁目店,東京都新宿区百人町2-22-12,139.6974,35.7038
ファミリ-マ-ト百人町二丁目店,東京都新宿区百人町2-6-7,139.70052,35.70282
ロ-ソンストア１００新宿百人町２丁目店,東京都新宿区百人町2-6-8,139.70052,35.70282
セブンイレブン新宿百人町2丁目店,東京都新宿区百人町2－8－1,139.69962,35.70313
サンクス新大久保駅前店,東京都新宿区百人町2丁目11番2号 神倉ビル,139.69905,35.70237
ロ-ソンストア１００新宿百人町４丁目店,東京都新宿区百人町4-9-7,139.69429,35.70914
コミュニティ・ストア富久町いせや店,東京都新宿区富久町19-13,139.71321,35.69253
ロ-ソン新宿富久町店,東京都新宿区富久町8-22,139.7178,35.69121
ファミリ-マ-ト新宿弁天町店,東京都新宿区弁天町21,139.72649,35.70461
ロ-ソン牛込店,東京都新宿区北山伏町1-1,139.73108,35.69972
サンクス北新宿店,東京都新宿区北新宿1-1-17,139.69701,35.69817
ロ-ソン北新宿１丁目店,東京都新宿区北新宿1-29-10,139.69122,35.70156
スリ-エフ北新宿店,東京都新宿区北新宿2-20-1,139.68791,35.69687
ロ-ソン北新宿三丁目店,東京都新宿区北新宿3-1-4,139.69463,35.70233
ミニストップ北新宿４丁目店,東京都新宿区北新宿4-12-4,139.69104,35.70519
サンクス小滝橋通り店,東京都新宿区北新宿4-3-13,139.69368,35.7065
ポプラドンチッチ市ヶ谷店,東京都新宿区本塩町21-5,139.72997,35.69086
セブンイレブン四谷店,東京都新宿区本塩町4,139.72984,35.68787
ファミリ-マ-ト升本神楽坂店,東京都新宿区矢来町113,139.7345,35.70411
セブンイレブン新宿神楽坂駅西店,東京都新宿区矢来町131-1,139.73251,35.70449
サンクス新宿余丁町店,東京都新宿区余丁町5-7,139.7149,35.69554
エ-エムピ-エム飯田橋店,東京都新宿区揚場町2-18,139.7426,35.70235
セブンイレブン新宿揚場町店,東京都新宿区揚場町2－18,139.7426,35.70235
セブンイレブン阿佐谷北仲通り店,東京都杉並区阿佐ヶ谷北2丁目9－12,139.63263,35.70551
ロ-ソン杉並区役所前店,東京都杉並区阿佐谷南1-16-7,139.63605,35.70086
エ-エムピ-エム阿佐ヶ谷パ-ルセンタ-店,東京都杉並区阿佐谷南1-17-20,139.63654,35.70054
ヒロマルチェ-ンリカ-＆ワイン阿佐谷三河屋,東京都杉並区阿佐谷南1-4-3,139.64243,35.69817
さいとう,東京都杉並区阿佐谷南1-47-14,139.63802,35.70341
ファミリ-マ-ト阿佐谷南一丁目店,東京都杉並区阿佐谷南1-48-12,139.63676,35.70375
サンクス阿佐谷南店,東京都杉並区阿佐谷南2-2-13,139.64359,35.70311
セブンイレブン阿佐谷中杉通り店,東京都杉並区阿佐谷南3-1-22,139.63557,35.70076
ロ-ソン阿佐ヶ谷南３丁目店,東京都杉並区阿佐谷南3-56-1,139.63434,35.70482
セブンイレブン阿佐谷北店,東京都杉並区阿佐谷北1-14-1,139.6391,35.7072
セブンイレブン杉並阿佐谷北1丁目店,東京都杉並区阿佐谷北1-44-7,139.63493,35.70974
（有）岡安商店,東京都杉並区阿佐谷北1-26-6,139.63593,35.70695
ファミリ-マ-ト阿佐谷中杉通り店,東京都杉並区阿佐谷北1-42-10,139.63553,35.70926
コミュニティ・ストア阿佐谷北いわもと店,東京都杉並区阿佐谷北1-4-3,139.6375,35.70546
スリ-エイト阿佐谷北店,東京都杉並区阿佐谷北2-9-12,139.63263,35.70551
ファミリ-マ-ト阿佐谷北店,東京都杉並区阿佐谷北3-13-12,139.63393,35.71009
サンクス阿佐谷北店,東京都杉並区阿佐谷北4丁目22,139.63446,35.71308
ロ-ソン阿佐ヶ谷北五丁目店,東京都杉並区阿佐谷北5-3-6,139.64015,35.70766
セブンイレブン阿佐谷北5丁目店,東京都杉並区阿佐谷北5-42-11,139.63943,35.71251
ファミリ-マ-ト下井草駅北店,東京都杉並区井草1-5-13,139.6228,35.72459
セブンイレブン杉並井草2丁目店,東京都杉並区井草2－19－8,139.62053,35.72722
ロ-ソン井草３丁目店,東京都杉並区井草3-22-8,139.61493,35.72819
セブンイレブン井荻駅北口店,東京都杉並区井草3-6-3,139.61493,35.72566
ファミリ-マ-ト上井草駅前店,東京都杉並区井草5丁目4-11 宮ビル,139.60291,35.72542
ファミリ-マ-ト永福一丁目店,東京都杉並区永福1-7-9,139.64388,35.66925
ファミリ-マ-ト永福町駅南店,東京都杉並区永福2丁目50-15,139.64265,35.67448
セブンイレブン杉並西永福駅前店,東京都杉並区永福3-35-5,139.63548,35.67828
ロ-ソン西永福店,東京都杉並区永福3-53-15,139.63718,35.6791
（有）サンフレッシュかわせ青果,東京都杉並区永福3-54-4,139.63667,35.67923
セブンイレブン杉並永福4丁目店,東京都杉並区永福4-17-20,139.63939,35.67871
ファミリ-マ-ト荻窪一丁目店,東京都杉並区荻窪1-20-15,139.61916,35.69276
ファミリ-マ-ト荻窪団地前店,東京都杉並区荻窪1-47-8,139.62497,35.69517
ファミリ-マ-ト天沼陸橋店,東京都杉並区荻窪3-47-15,139.62686,35.70292
ロ-ソンストア-１００杉並荻窪３丁目店,東京都杉並区荻窪3-47-21,139.62686,35.70292
ナチュラルロ-ソン荻窪四丁目店,東京都杉並区荻窪4-29-6,139.62445,35.70371
セブンイレブン荻窪駅前店,東京都杉並区荻窪5-16,139.61711,35.7039
三河屋,東京都杉並区荻窪5-20-10,139.62021,35.70236
ナチュラルロ-ソン荻窪五丁目店,東京都杉並区荻窪5-21-16,139.6205,35.70285
ロ-ソン荻窪駅西南店,東京都杉並区荻窪5-26-9,139.61916,35.70388
セブンイレブン杉並荻窪5丁目店,東京都杉並区荻窪5－30－17,139.62177,35.70399
ミニストップ荻窪５丁目店,東京都杉並区荻窪5-6-5,139.61877,35.70123
エ-エムピ-エム杉並天沼店,東京都杉並区下井草1-23-2,139.63141,35.71559
ファミリ-マ-ト下井草駅南口店,東京都杉並区下井草2-44-4,139.625,35.7238
ロ-ソンストア１００杉並下井草三丁目店,東京都杉並区下井草3-3-21,139.62624,35.71749
セブンイレブン下井草店,東京都杉並区下井草3－38－11,139.62376,35.72322
ミニストップ下井草４丁目店,東京都杉並区下井草4-3-9,139.61986,35.71917
セブンイレブン杉並井荻店,東京都杉並区下井草5-19-16,139.61545,35.72388
ファミリ-マ-ト桜上水北口店,東京都杉並区下高井戸1-23-11,139.63266,35.66839
サンクス下高井戸店,東京都杉並区下高井戸1丁目1番13,139.64124,35.66695
エ-エムピ-エム杉並下高井戸2丁目店,東京都杉並区下高井戸2－5－2,139.63748,35.66837
セブンイレブン桜上水駅北店,東京都杉並区下高井戸3-2-12,139.63271,35.67041
エ-エムピ-エム杉並下高井戸4丁目店,東京都杉並区下高井戸4－5－2,139.6284,35.67038
セブンイレブン杉並下高井戸5丁目店,東京都杉並区下高井戸5-2,139.62514,35.67074
エ-エムピ-エム杉並富士見ヶ丘駅前店,東京都杉並区久我山2－25－19,139.60722,35.68465
Ｆマ-トさかもとや,東京都杉並区久我山3-10-1,139.59267,35.68671
セブンイレブン久我山3丁目店,東京都杉並区久我山3－1－29,139.59787,35.68441
セブンイレブン杉並久我山3の西店,東京都杉並区久我山3-8-7,139.59166,35.68708
情熱空間杉並富士見ヶ丘店,東京都杉並区久我山5-24-30,139.60718,35.68684
ファミリ-マ-ト富士見ヶ丘店,東京都杉並区久我山5-25-9,139.60815,35.6878
セブンイレブン久我山5丁目店,東京都杉並区久我山5－26－1,139.60815,35.68848
セブンイレブン杉並久我山駅東店,東京都杉並区久我山5－5－13,139.60095,35.68736
ファミリ-マ-ト久我山駅北店,東京都杉並区久我山5-8-19,139.60201,35.68841
セブンイレブン杉並宮前3丁目店,東京都杉並区宮前3－23－13,139.61121,35.69565
藤沢食品ストア-,東京都杉並区宮前3-29-15,139.60843,35.69685
セブンイレブン杉並都立西高前店,東京都杉並区宮前4-20-11,139.60432,35.69249
セブンイレブン杉並高井戸駅前店,東京都杉並区高井戸西1-29-2,139.6152,35.68272
ファミリ-マ-ト高井戸西一丁目店,東京都杉並区高井戸西1-4-16,139.61397,35.67971
セブンイレブン杉並高井戸西店,東京都杉並区高井戸西3-1-4,139.61566,35.68686
ファミリ-マ-ト浜田山駅北店,東京都杉並区高井戸東3-14-41,139.62511,35.68322
ミニストップ高井戸東３丁目店,東京都杉並区高井戸東3-28-26,139.61661,35.68824
セブンイレブン杉並高井戸東4丁目店,東京都杉並区高井戸東4－3－9,139.62021,35.68747
ファミリ-マ-ト高円寺陸橋店,東京都杉並区高円寺南1-11-6,139.65565,35.69822
セブンイレブン東高円寺店,東京都杉並区高円寺南1-33-1,139.65666,35.70123
ファミリ-マ-ト東高円寺駅北口店,東京都杉並区高円寺南1-7-3,139.65802,35.69841
セブンイレブン高円寺青梅街道店,東京都杉並区高円寺南2-11-3,139.65077,35.69852
ミニストップ高円寺南２丁目店,東京都杉並区高円寺南2-14-13,139.64977,35.69937
ナチュラルロ-ソン新高円寺駅前店,東京都杉並区高円寺南2-19-4,139.64815,35.69903
コマチ高円寺南店,東京都杉並区高円寺南2-53-1,139.65292,35.70193
セブンイレブン杉並高円寺南3丁目店,東京都杉並区高円寺南3－22－15,139.64717,35.70042
セブンイレブン高円寺南店,東京都杉並区高円寺南3-44-13,139.64706,35.70322
ファミリ-マ-ト高円寺南三丁目店,東京都杉並区高円寺南3-7-3,139.64444,35.69823
スリ-エフ高円寺南4丁目店,東京都杉並区高円寺南4-23-7,139.64992,35.70358
セブンイレブン高円寺駅前店,東京都杉並区高円寺南4-26-5,139.64934,35.70419
セブンイレブン高円寺環7店,東京都杉並区高円寺南4－39－17,139.65404,35.70475
ファミリ-マ-ト高円寺駅東店,東京都杉並区高円寺南4-50,139.6521,35.70542
ロ-ソン高円寺南四丁目店,東京都杉並区高円寺南4-6-10,139.64896,35.70298
サ-クルＫ高円寺南店,東京都杉並区高円寺南4丁目44番8号,139.65123,35.70476
デイリ-ヤマザキ高円寺環七通り店,東京都杉並区高円寺南5-44-1,139.65544,35.70546
ＳＨＯＰ９９高円寺北店,東京都杉並区高円寺北1-5-3,139.6561,35.70601
セブンイレブン杉並高円寺北2丁目店,東京都杉並区高円寺北2－12－3,139.65198,35.70666
ポプラ高円寺北２丁目店,東京都杉並区高円寺北2-24-16,139.65135,35.70762
セブンイレブン高円寺中通商店街店,東京都杉並区高円寺北3－2－14,139.64796,35.70582
ロ-ソン高円寺北３丁目店,東京都杉並区高円寺北3-2-16,139.64796,35.70582
セブンイレブン高円寺純情商店街店,東京都杉並区高円寺北3-22-14,139.64912,35.70587
ファミリ-マ-ト山桝高円寺店,東京都杉並区高円寺北3-42-14,139.64738,35.7097
サンクス高円寺純情商店街店,東京都杉並区高円寺北3丁目24-13,139.64967,35.70709
サンクス高円寺中通店,東京都杉並区高円寺北4-17-12,139.64528,35.70736
セブンイレブン高円寺北店,東京都杉並区高円寺北4－40－8,139.64572,35.71063
エ-エムピ-エム杉並松ノ木1丁目店,東京都杉並区松ノ木1－12－26,139.64163,35.6898
セブンイレブン杉並松ノ木2丁目店,東京都杉並区松ノ木2－39－7,139.64281,35.69173
ファミリ-マ-ト松庵二丁目店,東京都杉並区松庵2-15-1,139.59467,35.6976
デイリ-ヤマザキ西荻窪店,東京都杉並区松庵3-41-1,139.59624,35.70372
ファミリ-マ-トいかりや西荻駅前店,東京都杉並区松庵3丁目38-19,139.59944,35.70264
ファミリ-マ-ト上井草一丁目店,東京都杉並区上井草1-32-7,139.61299,35.72469
ミニストップ上井草店,東京都杉並区上井草2-1-15,139.61034,35.71947
セブンイレブン上井草店,東京都杉並区上井草3-31-23,139.60365,35.7244
ロ-ソンストア１００杉並上井草３丁目店,東京都杉並区上井草3-32-8,139.60297,35.7252
エ-エムピ-エム杉並上井草3丁目店,東京都杉並区上井草3－9－1,139.6015,35.71833
セブンイレブン杉並荻窪駅北口店,東京都杉並区上荻1-13-3,139.618,35.70506
セブンイレブン杉並上荻1丁目店,東京都杉並区上荻1-5-8,139.62192,35.70492
ロ-ソン上荻一丁目店,東京都杉並区上荻1-23-1,139.61656,35.70657
スリ-エフ杉並上荻1丁目店,東京都杉並区上荻1-25-1,139.61549,35.7076
セブンイレブン荻窪店,東京都杉並区上荻2-40-9,139.61378,35.70823
エ-エムピ-エム杉並上荻3丁目店,東京都杉並区上荻3－5－4,139.60773,35.70662
セブンイレブン杉並上荻3丁目店,東京都杉並区上荻3丁目26－10,139.6096,35.71023
セブンイレブン杉並芦花公園店,東京都杉並区上高井戸1-20-9,139.60924,35.67128
ロ-ソン高井戸陸橋店,東京都杉並区上高井戸1-3-14,139.61366,35.67113
ファミリ-マ-ト八幡山店,東京都杉並区上高井戸1-9-1,139.61649,35.67207
ロ-ソン上高井戸二丁目店,東京都杉並区上高井戸2-18-20,139.6062,35.67988
タウンショップもとはし,東京都杉並区上高井戸3-4-6,139.61731,35.67511
もとはし,東京都杉並区上高井戸3-4-6,139.61731,35.67511
ミニストップ杉並成田西店,東京都杉並区成田西3-2-2,139.63269,35.69182
スリ-エフ杉並成田西3丁目店,東京都杉並区成田西3丁目20-3,139.62265,35.69101
セブンイレブン杉並成田東1丁目店,東京都杉並区成田東1丁目32－12,139.63797,35.69183
ファミリ-マ-ト成田東四丁目店,東京都杉並区成田東4-38-19,139.63628,35.69827
ミニストップ南阿佐ヶ谷店,東京都杉並区成田東4-39-8,139.63559,35.69889
セブンイレブン杉並成田東4丁目店,東京都杉並区成田東4丁目34番15号,139.63853,35.698
エ-エムピ-エム杉並成田東5丁目店,東京都杉並区成田東5－17－15,139.62968,35.70157
サンクス杉並成田東店,東京都杉並区成田東5-20-10 ビュ-コ-トF,139.63113,35.70086
セブンイレブン杉並清水店,東京都杉並区清水3-31-15,139.61459,35.71854
セブンイレブン西荻神明通り店,東京都杉並区西荻南1-22-11,139.60252,35.70028
セブンイレブン西荻南2丁目店,東京都杉並区西荻南2－3－2,139.59923,35.69802
ファミリ-マ-ト塚本西荻南店,東京都杉並区西荻南2-7-10,139.5986,35.69983
ロ-ソン西荻窪駅北店,東京都杉並区西荻北2-3-7,139.60104,35.70465
セブンイレブン西荻北2丁目店,東京都杉並区西荻北2－5－11,139.60229,35.70458
ロ-ソン西荻北二丁目店,東京都杉並区西荻北2-6-2,139.60371,35.7044
セブンイレブン西荻窪駅北口店,東京都杉並区西荻北3-1-10,139.59961,35.70409
サンクス西荻北店,東京都杉並区西荻北3-32-12,139.60086,35.70629
セブンイレブン西荻北店,東京都杉並区西荻北4-1-19,139.59601,35.70579
ファミリ-マ-ト西荻女子大通り店,東京都杉並区西荻北4-32-16,139.59372,35.7089
セブンイレブン西荻北5丁目店,東京都杉並区西荻北5－7－18,139.60133,35.70849
セブンイレブン善福寺店,東京都杉並区善福寺1-2-31,139.60045,35.7117
デイリ-ヤマザキ善福寺店,東京都杉並区善福寺1-27-1,139.59795,35.71454
スリ-エイト天沼店,東京都杉並区天沼2-17-9,139.62399,35.70718
セブンイレブン杉並日大二高店,東京都杉並区天沼2-43-22,139.62555,35.71061
ファミリ-マ-ト天沼三丁目店,東京都杉並区天沼3-1-1,139.62257,35.7056
サンクス天沼3丁目店,東京都杉並区天沼3-26-15 サンパレス,139.62054,35.7075
サンクス荻窪北口店,東京都杉並区天沼3-6-6,139.6189,35.70661
ファミリ-マ-ト杉並桃井店,東京都杉並区桃井2丁目2-1,139.61009,35.71087
ミニストップ杉並桃井３丁目店,東京都杉並区桃井3-2-1,139.6068,35.71166
セブンイレブン杉並桃井4丁目店,東京都杉並区桃井4－13－11,139.60426,35.71411
ナチュラルロ-ソン桃井四丁目店,東京都杉並区桃井4-2-6,139.60304,35.71234
セブンイレブン荻窪環八店,東京都杉並区南荻窪1-22-14,139.61703,35.69729
ミニストップ南荻窪３丁目店,東京都杉並区南荻窪3-34-1,139.60902,35.70409
エ-エムピ-エム南荻窪4丁目店,東京都杉並区南荻窪4－29－10,139.61615,35.70241
セブンイレブン新高円寺駅前店,東京都杉並区梅里1-7-7-103,139.64909,35.697
サンクス高円寺梅里店,東京都杉並区梅里1-8-12,139.64983,35.69712
ファミリ-マ-ト梅里二丁目店,東京都杉並区梅里2-14-2,139.64456,35.69572
ロ-ソンストア１００杉並梅里２丁目店,東京都杉並区梅里2-9-11,139.64569,35.69746
ロ-ソン浜田山駅前店,東京都杉並区浜田山3-30-3,139.62766,35.68217
サンクス浜田山店,東京都杉並区浜田山3-34-27,139.62688,35.68239
ファミリ-マ-ト浜田山三丁目店,東京都杉並区浜田山3-6-22,139.63557,35.68007
コミュニティ・ストア浜田山大谷屋店,東京都杉並区浜田山4-9-15,139.63243,35.68325
セブンイレブン方南一丁目店,東京都杉並区方南1－23－1,139.66061,35.67642
コミュニティ・ストアいせもと店,東京都杉並区方南1-26-1,139.65904,35.67605
セブンイレブン方南店,東京都杉並区方南2-20-15,139.65848,35.68413
ファミリ-マ-ト方南町駅前店,東京都杉並区方南2-21-4,139.65781,35.68399
スリ-エフ杉並方南町店,東京都杉並区方南2-8-9,139.65871,35.68193
セブンイレブン杉並大宮店,東京都杉並区堀ノ内1-14-2,139.64784,35.68344
セブンイレブン杉並堀ノ内1丁目店,東京都杉並区堀ノ内1-5-1,139.65506,35.68366
ファミリ-マ-ト方南町西口店,東京都杉並区堀ノ内1-3-13,139.65623,35.68455
サ-クルＫ杉並方南町駅店,東京都杉並区堀ノ内1丁目1番12号,139.65623,35.68361
セブンイレブン杉並堀ノ内2丁目店,東京都杉並区堀ノ内2－13－11,139.65482,35.68866
セブンイレブン杉並天沼店,東京都杉並区本天沼2-43-11,139.62679,35.71642
セブンイレブン杉並天沼通り店,東京都杉並区本天沼3丁目－5－1,139.62268,35.71123
ミニストップ杉並和泉町店,東京都杉並区和泉2-21-36,139.65079,35.6728
デイリ-ヤマザキ杉並和泉店,東京都杉並区和泉2-27-27,139.65521,35.67289
セブンイレブン永福北口店,東京都杉並区和泉3-31-5,139.64569,35.6787
ヒロマルチェ-ンスリ-エイト永福北口店,東京都杉並区和泉3-46-7,139.64655,35.68002
ミニストップ永福町駅前店,東京都杉並区和泉3-5-4,139.64429,35.67641
セブンイレブン和泉店,東京都杉並区和泉4-1-20,139.65666,35.67854
サンクス杉並和泉店,東京都杉並区和泉4-48-17 鈴木ビル,139.65517,35.68274
エ-エムピ-エム中野富士見町駅前店,東京都杉並区和田1-18-2,139.66679,35.69117
ポプラ和田店,東京都杉並区和田1-19-5,139.66647,35.69136
セブンイレブン杉並和田1丁目店,東京都杉並区和田1丁目16－16,139.6649,35.69069
セブンイレブン杉並和田店,東京都杉並区和田2-43-11,139.65593,35.69201
ロ-ソン和田三丁目店,東京都杉並区和田3-14-1,139.65556,35.69268
セブンイレブン杉並和田3丁目店,東京都杉並区和田3-61-6,139.66104,35.69731
ファミリ-マ-ト東高円寺駅前店,東京都杉並区和田3-56-13,139.65865,35.69761
１００円ショップＤＲＥＡＭ,東京都世田谷区宇奈根1-16-1,139.60825,35.62004
リカ-アンドフ-ズ山,東京都世田谷区宇奈根3-1-12,139.60718,35.6233
山,東京都世田谷区宇奈根3-1-12,139.60718,35.6233
セブンイレブン世田谷羽根木2丁目店,東京都世田谷区羽根木2－4－15,139.65863,35.66845
セブンイレブン世田谷奥沢2丁目店,東京都世田谷区奥沢2－11－7,139.6722,35.60498
デイリ-ヤマザキ世田谷奥沢店,東京都世田谷区奥沢2-25-4,139.6783,35.60625
ロ-ソン奥沢駅前店,東京都世田谷区奥沢4-28-11,139.67143,35.60361
ナチュラルロ-ソン九品仏小前店,東京都世田谷区奥沢6-11-7,139.6615,35.6035
スリ-エフ自由が丘店,東京都世田谷区奥沢6-20-20,139.66554,35.60413
セブンイレブン九品仏駅前店,東京都世田谷区奥沢7-18-5,139.66228,35.60575
ロ-ソン奥沢七丁目店,東京都世田谷区奥沢7-20-19,139.66106,35.6056
スリ-エフ奥沢8丁目店,東京都世田谷区奥沢8-37-11,139.65901,35.60556
スリ-エフ岡本1丁目店,東京都世田谷区岡本3-9-1,139.61699,35.62672
セブンイレブン下馬1丁目店,東京都世田谷区下馬1－5－4,139.68333,35.63885
セブンイレブン世田谷下馬北店,東京都世田谷区下馬1-55-1,139.68419,35.64112
ロ-ソン下馬２丁目店,東京都世田谷区下馬2-44-12,139.67944,35.64395
ファミリ-マ-ト下馬三丁目店,東京都世田谷区下馬3-2-1,139.67696,35.63282
サンクス世田谷観音店,東京都世田谷区下馬3-33-10,139.67575,35.6371
セブンイレブン野沢店,東京都世田谷区下馬6-16-1,139.67978,35.62894
セブンイレブン世田谷鎌田2丁目店,東京都世田谷区鎌田2-22-8,139.60916,35.62012
ファミリ-マ-ト世田谷鎌田三丁目店,東京都世田谷区鎌田3-12-16,139.61411,35.61991
ファミリ-マ-ト鎌田水神橋店,東京都世田谷区鎌田3-34-9,139.61351,35.62372
デイリ-ヤマザキ喜多見5丁目店,東京都世田谷区喜多見5-26-18,139.60059,35.62986
デイリ-ヤマザキ多摩堤通り店,東京都世田谷区喜多見5-4-5,139.60318,35.62819
ファミリ-マ-ト世田谷喜多見店,東京都世田谷区喜多見7丁目36-27,139.59552,35.63448
セブンイレブン世田谷喜多見駅前店,東京都世田谷区喜多見8-18-2,139.58823,35.63622
ロ-ソン喜多見九丁目店,東京都世田谷区喜多見9-1-2,139.58859,35.63712
ファミリ-マ-ト喜多見駅北店,東京都世田谷区喜多見9-2-23,139.58685,35.63644
オダキュ-ＯＸ喜多見店,東京都世田谷区喜多見9-2-26,139.58685,35.63644
デイリ-ヤマザキ砧店,東京都世田谷区砧1-7-8,139.61902,35.63595
ファミリ-マ-ト砧城山通り店,東京都世田谷区砧2-23-2,139.61592,35.64494
セブンイレブン世田谷砧3丁目店,東京都世田谷区砧3－4－6,139.61182,35.63491
セブンイレブン世田谷砧店,東京都世田谷区砧4-11-7,139.61267,35.64006
セブンイレブン世田谷砧6丁目店,東京都世田谷区砧6－39－2,139.60938,35.64302
ロ-ソン祖師谷大蔵駅南口店,東京都世田谷区砧8-8-21,139.60748,35.64172
サンクス宮の坂店,東京都世田谷区宮坂1-25-1,139.64507,35.64882
セブンイレブン世田谷宮坂3丁目店,東京都世田谷区宮坂3－40－8,139.63501,35.65658
セブンイレブン世田谷給田店,東京都世田谷区給田3-1-16,139.59592,35.66721
あぶらや,東京都世田谷区給田3-7-17,139.59309,35.66678
ロ-ソン給田四丁目店,東京都世田谷区給田4-30-1,139.58878,35.67128
セブンイレブン世田谷玉川2丁目店,東京都世田谷区玉川2-14-5,139.62993,35.61316
セブンイレブン世田谷玉川店,東京都世田谷区玉川2-7-1,139.63277,35.61145
セブンイレブン二子玉川駅前店,東京都世田谷区玉川3-6-5,139.62631,35.61247
ファミリ-マ-ト玉川三丁目店,東京都世田谷区玉川3丁目38-1,139.62286,35.6168
ロ-ソン世田谷玉川四丁目店,東京都世田谷区玉川4-5-7,139.62605,35.61564
ファミリ-マ-ト玉川台二丁目店,東京都世田谷区玉川台2-1-16,139.63089,35.6217
セブンイレブン世田谷玉川台店,東京都世田谷区玉川台2-21-16,139.63197,35.62424
ロ-ソン玉川田園調布二丁目店,東京都世田谷区玉川田園調布2-6-8,139.6653,35.60092
セブンイレブン世田谷玉堤1丁目店,東京都世田谷区玉堤1－27－15,139.65012,35.59701
スリ-エフ世田谷玉堤店,東京都世田谷区玉堤1-29-5,139.65028,35.59922
サ-クルＫ世田谷玉堤店,東京都世田谷区玉堤一丁目14番19号,139.65192,35.59629
ファミリ-マ-ト駒沢一丁目店,東京都世田谷区駒沢1-13-12,139.65961,35.63168
ミニストップ駒沢１丁目店,東京都世田谷区駒沢1-2-25,139.66168,35.63083
セブンイレブン駒澤大学店,東京都世田谷区駒沢1－23－1,139.65872,35.62918
ファミリ-マ-ト駒沢自由通り店,東京都世田谷区駒沢1-4-21,139.66106,35.63236
セブンイレブン世田谷駒沢4丁目店,東京都世田谷区駒沢4-19-10,139.65514,35.63036
サ-クルＫ駒沢二丁目店,東京都世田谷区駒沢二丁目11番5号,139.659,35.63256
ロ-ソン経堂一丁目店,東京都世田谷区経堂1-11-12,139.63741,35.64915
サンクス経堂農大通り店,東京都世田谷区経堂1丁目23-13,139.63615,35.64996
セブンイレブン世田谷千歳郵便局前店,東京都世田谷区経堂1丁目33－16,139.6328,35.64975
セブンイレブン世田谷経堂2丁目店,東京都世田谷区経堂2－10－11,139.6338,35.65346
ファミリ-マ-ト経堂駅西店,東京都世田谷区経堂2-14-1,139.6348,35.65115
ナチュラルロ-ソン経堂二丁目店,東京都世田谷区経堂2-27-20,139.63208,35.65403
サンクス経堂北店,東京都世田谷区経堂2-6-2,139.63496,35.65226
セブンイレブン世田谷経堂3丁目店,東京都世田谷区経堂3－21－6,139.62929,35.65236
ミニストップ経堂店,東京都世田谷区経堂5-31-5,139.6353,35.64805
サンクス弦巻1丁目店,東京都世田谷区弦巻1-14-17,139.65442,35.63705
ファミリ-マ-ト弦巻駒留通り店,東京都世田谷区弦巻1-47-12 ＮＴＴ弦巻ビル,139.64754,35.6397
ロ-ソン弦巻二丁目店,東京都世田谷区弦巻2-9-5,139.65387,35.63628
セブンイレブン世田谷弦巻3丁目店,東京都世田谷区弦巻3－19－2,139.64743,35.63639
エ-エムピ-エムエ-ピ-|エンタ世田谷弦巻3丁目店,東京都世田谷区弦巻3－8－12,139.64577,35.63415
エ-エムピ-エム世田谷弦巻店,東京都世田谷区弦巻4-34-23,139.64275,35.63962
